{
  "type": "FeatureCollection",
  "features": [
    {
      "type": "Feature",
      "properties": {
        "id": 20001,
        "shortName": "1",
        "longName": "РљР°Р»РµРјРµРіРґР°РЅ",
        "display": "bus"
      },
      "geometry": {
        "type": "Point",
        "coordinates": [
          20.4532741,
          44.8268096
        ]
      }
    },
    {
      "type": "Feature",
      "properties": {
        "id": 20002,
        "shortName": "2",
        "longName": "РўР°РґРµСѓС€Р° РљРѕС€С›СѓС€РєР°",
        "display": "tram"
      },
      "geometry": {
        "type": "Point",
        "coordinates": [
          20.4552468606,
          44.8259220447
        ]
      }
    },
    {
      "type": "Feature",
      "properties": {
        "id": 20003,
        "shortName": "3",
        "longName": "РўР°РґРµСѓС€Р° РљРѕС€С›СѓС€РєР°",
        "display": "tram"
      },
      "geometry": {
        "type": "Point",
        "coordinates": [
          20.4550793528,
          44.8261773059
        ]
      }
    },
    {
      "type": "Feature",
      "properties": {
        "id": 20004,
        "shortName": "4",
        "longName": "РљР°Р»РµРјРµРіРґР°РЅ",
        "display": "tram"
      },
      "geometry": {
        "type": "Point",
        "coordinates": [
          20.4532303423,
          44.820227965
        ]
      }
    },
    {
      "type": "Feature",
      "properties": {
        "id": 20005,
        "shortName": "5",
        "longName": "РљР°Р»РµРјРµРіРґР°РЅ",
        "display": "tram"
      },
      "geometry": {
        "type": "Point",
        "coordinates": [
          20.4540765,
          44.8208843
        ]
      }
    },
    {
      "type": "Feature",
      "properties": {
        "id": 20006,
        "shortName": "6",
        "longName": "РџСЂРёСЃС‚Р°РЅРёС€С‚Рµ РљР° Р‘Р»РѕРєСѓВ 45",
        "display": "tram"
      },
      "geometry": {
        "type": "Point",
        "coordinates": [
          20.449443994,
          44.81868572
        ]
      }
    },
    {
      "type": "Feature",
      "properties": {
        "id": 20007,
        "shortName": "7",
        "longName": "РџСЂРёСЃС‚Р°РЅРёС€С‚Рµ",
        "display": "tram"
      },
      "geometry": {
        "type": "Point",
        "coordinates": [
          20.449496002,
          44.8190021156
        ]
      }
    },
    {
      "type": "Feature",
      "properties": {
        "id": 20008,
        "shortName": "8",
        "longName": "Р‘СЂР°РЅРєРѕРІ РјРѕСЃС‚",
        "display": "tram"
      },
      "geometry": {
        "type": "Point",
        "coordinates": [
          20.4511871424,
          44.8143033135
        ]
      }
    },
    {
      "type": "Feature",
      "properties": {
        "id": 20009,
        "shortName": "9",
        "longName": "Р‘СЂР°РЅРєРѕРІ РјРѕСЃС‚",
        "display": "tram"
      },
      "geometry": {
        "type": "Point",
        "coordinates": [
          20.4513017141,
          44.8143384093
        ]
      }
    },
    {
      "type": "Feature",
      "properties": {
        "id": 20010,
        "shortName": "10",
        "longName": "Р•РєРѕРЅРѕРјСЃРєРё С„Р°РєСѓР»С‚РµС‚",
        "display": "bus"
      },
      "geometry": {
        "type": "Point",
        "coordinates": [
          20.4539891189,
          44.8107891758
        ]
      }
    },
    {
      "type": "Feature",
      "properties": {
        "id": 20011,
        "shortName": "11",
        "longName": "Р•РєРѕРЅРѕРјСЃРєРё С„Р°РєСѓР»С‚РµС‚",
        "display": "tram"
      },
      "geometry": {
        "type": "Point",
        "coordinates": [
          20.4534939233,
          44.8122387715
        ]
      }
    },
    {
      "type": "Feature",
      "properties": {
        "id": 20012,
        "shortName": "12",
        "longName": "РЎР°РІСЃРєРё С‚СЂРі",
        "display": "tram"
      },
      "geometry": {
        "type": "Point",
        "coordinates": [
          20.45513,
          44.806882
        ]
      }
    },
    {
      "type": "Feature",
      "properties": {
        "id": 20013,
        "shortName": "13",
        "longName": "РЎР°РІСЃРєРё С‚СЂРі",
        "display": "tram"
      },
      "geometry": {
        "type": "Point",
        "coordinates": [
          20.4555010368,
          44.807265449
        ]
      }
    },
    {
      "type": "Feature",
      "properties": {
        "id": 20014,
        "shortName": "14",
        "longName": "РџР°Р»Р°С‚Р° РїСЂР°РІРґРµ",
        "display": "tram"
      },
      "geometry": {
        "type": "Point",
        "coordinates": [
          20.4529837515,
          44.8044594362
        ]
      }
    },
    {
      "type": "Feature",
      "properties": {
        "id": 20015,
        "shortName": "15",
        "longName": "РџР°Р»Р°С‚Р° РїСЂР°РІРґРµ",
        "display": "tram"
      },
      "geometry": {
        "type": "Point",
        "coordinates": [
          20.453910486,
          44.8050616664
        ]
      }
    },
    {
      "type": "Feature",
      "properties": {
        "id": 20016,
        "shortName": "16",
        "longName": "РњРѕСЃС‚Р°СЂ",
        "display": "tram"
      },
      "geometry": {
        "type": "Point",
        "coordinates": [
          20.4488731295,
          44.7988846912
        ]
      }
    },
    {
      "type": "Feature",
      "properties": {
        "id": 20017,
        "shortName": "17",
        "longName": "РњРѕСЃС‚Р°СЂ",
        "display": "tram"
      },
      "geometry": {
        "type": "Point",
        "coordinates": [
          20.4488534,
          44.7987781
        ]
      }
    },
    {
      "type": "Feature",
      "properties": {
        "id": 20018,
        "shortName": "18",
        "longName": "РЎР°СР°Рј",
        "display": "tram"
      },
      "geometry": {
        "type": "Point",
        "coordinates": [
          20.4428016,
          44.7965092
        ]
      }
    },
    {
      "type": "Feature",
      "properties": {
        "id": 20019,
        "shortName": "19",
        "longName": "РЎР°СР°Рј",
        "display": "tram"
      },
      "geometry": {
        "type": "Point",
        "coordinates": [
          20.4426500043,
          44.7964892067
        ]
      }
    },
    {
      "type": "Feature",
      "properties": {
        "id": 20020,
        "shortName": "20",
        "longName": "Р СѓСЃРєР°",
        "display": "tram"
      },
      "geometry": {
        "type": "Point",
        "coordinates": [
          20.4376683981,
          44.7951744405
        ]
      }
    },
    {
      "type": "Feature",
      "properties": {
        "id": 20021,
        "shortName": "21",
        "longName": "Р СѓСЃРєР°",
        "display": "tram"
      },
      "geometry": {
        "type": "Point",
        "coordinates": [
          20.4373957,
          44.795162
        ]
      }
    },
    {
      "type": "Feature",
      "properties": {
        "id": 20022,
        "shortName": "22",
        "longName": "Р“РѕСЃРїРѕРґР°СЂСЃРєР° РјРµС…Р°РЅР°",
        "display": "tram"
      },
      "geometry": {
        "type": "Point",
        "coordinates": [
          20.4309756,
          44.7937116
        ]
      }
    },
    {
      "type": "Feature",
      "properties": {
        "id": 20023,
        "shortName": "23",
        "longName": "Р“РѕСЃРїРѕРґР°СЂСЃРєР° РјРµС…Р°РЅР°",
        "display": "tram"
      },
      "geometry": {
        "type": "Point",
        "coordinates": [
          20.431366,
          44.7937709
        ]
      }
    },
    {
      "type": "Feature",
      "properties": {
        "id": 20052,
        "shortName": "52",
        "longName": "Р”РѕСЂС›РѕР» (РљРЅРµРіРёСљРµ Р‰СѓР±РёС†Рµ)",
        "display": "bus"
      },
      "geometry": {
        "type": "Point",
        "coordinates": [
          20.464118,
          44.8211062
        ]
      }
    },
    {
      "type": "Feature",
      "properties": {
        "id": 20053,
        "shortName": "53",
        "longName": "Р”РѕСЂС›РѕР» (РљРЅРµРіРёСљРµ Р‰СѓР±РёС†Рµ)",
        "display": "bus"
      },
      "geometry": {
        "type": "Point",
        "coordinates": [
          20.4640175675,
          44.8212836211
        ]
      }
    },
    {
      "type": "Feature",
      "properties": {
        "id": 20054,
        "shortName": "54",
        "longName": "РџРёСР°С†Р° РЎРєР°РґР°СЂР»РёСР°",
        "display": "bus"
      },
      "geometry": {
        "type": "Point",
        "coordinates": [
          20.4670847742,
          44.8182518152
        ]
      }
    },
    {
      "type": "Feature",
      "properties": {
        "id": 20055,
        "shortName": "55",
        "longName": "РџРёСР°С†Р° РЎРєР°РґР°СЂР»РёСР°",
        "display": "bus"
      },
      "geometry": {
        "type": "Point",
        "coordinates": [
          20.4669163276,
          44.8185564961
        ]
      }
    },
    {
      "type": "Feature",
      "properties": {
        "id": 20056,
        "shortName": "56",
        "longName": "Р‘СѓР»РµРІР°СЂ РґРµСЃРїРѕС‚Р° РЎС‚РµС„Р°РЅР°",
        "display": "bus"
      },
      "geometry": {
        "type": "Point",
        "coordinates": [
          20.4693938282,
          44.8163862082
        ]
      }
    },
    {
      "type": "Feature",
      "properties": {
        "id": 20057,
        "shortName": "57",
        "longName": "Р‘СѓР»РµРІР°СЂ РґРµСЃРїРѕС‚Р° РЎС‚РµС„Р°РЅР°",
        "display": "bus"
      },
      "geometry": {
        "type": "Point",
        "coordinates": [
          20.4694367761,
          44.8164366014
        ]
      }
    },
    {
      "type": "Feature",
      "properties": {
        "id": 20058,
        "shortName": "58",
        "longName": "РўР°РєРѕРІСЃРєР°",
        "display": "bus"
      },
      "geometry": {
        "type": "Point",
        "coordinates": [
          20.4718235528,
          44.8137044645
        ]
      }
    },
    {
      "type": "Feature",
      "properties": {
        "id": 20059,
        "shortName": "59",
        "longName": "РўР°РєРѕРІСЃРєР°",
        "display": "bus"
      },
      "geometry": {
        "type": "Point",
        "coordinates": [
          20.4725244099,
          44.813073556
        ]
      }
    },
    {
      "type": "Feature",
      "properties": {
        "id": 20060,
        "shortName": "60",
        "longName": "Р‘РµР¶Р°РЅРёССЃРєР° РєРѕСЃР° (Р“СЂС‡РєР°)",
        "display": "bus"
      },
      "geometry": {
        "type": "Point",
        "coordinates": [
          20.3712402331,
          44.8155587837
        ]
      }
    },
    {
      "type": "Feature",
      "properties": {
        "id": 20061,
        "shortName": "61",
        "longName": "РџР°Р»РёР»СѓР»СЃРєР° РїРёСР°С†Р°",
        "display": "bus"
      },
      "geometry": {
        "type": "Point",
        "coordinates": [
          20.4747484624,
          44.8104408816
        ]
      }
    },
    {
      "type": "Feature",
      "properties": {
        "id": 20062,
        "shortName": "62",
        "longName": "РњР°С€РёРЅСЃРєРё С„Р°РєСѓР»С‚РµС‚",
        "display": "bus"
      },
      "geometry": {
        "type": "Point",
        "coordinates": [
          20.4776606112,
          44.807098309
        ]
      }
    },
    {
      "type": "Feature",
      "properties": {
        "id": 20063,
        "shortName": "63",
        "longName": "Р’СѓРєРѕРІ СЃРїРѕРјРµРЅРёРє",
        "display": "bus"
      },
      "geometry": {
        "type": "Point",
        "coordinates": [
          20.477994065,
          44.8055209485
        ]
      }
    },
    {
      "type": "Feature",
      "properties": {
        "id": 20064,
        "shortName": "64",
        "longName": "Р’СѓРєРѕРІ СЃРїРѕРјРµРЅРёРє",
        "display": "bus"
      },
      "geometry": {
        "type": "Point",
        "coordinates": [
          20.4782506178,
          44.8054748612
        ]
      }
    },
    {
      "type": "Feature",
      "properties": {
        "id": 20065,
        "shortName": "65",
        "longName": "РџСЂР°РІРЅРё С„Р°РєСѓР»С‚РµС‚",
        "display": "bus"
      },
      "geometry": {
        "type": "Point",
        "coordinates": [
          20.4711145,
          44.8068231
        ]
      }
    },
    {
      "type": "Feature",
      "properties": {
        "id": 20066,
        "shortName": "66",
        "longName": "РџСЂР°РІРЅРё С„Р°РєСѓР»С‚РµС‚",
        "display": "tram"
      },
      "geometry": {
        "type": "Point",
        "coordinates": [
          20.4731870258,
          44.8063476669
        ]
      }
    },
    {
      "type": "Feature",
      "properties": {
        "id": 20067,
        "shortName": "67",
        "longName": "РўСЂРі РЎР»Р°РІРёСР° (РќРµРјР°СљРёРЅР°)",
        "display": "tram"
      },
      "geometry": {
        "type": "Point",
        "coordinates": [
          20.4640694,
          44.8035254
        ]
      }
    },
    {
      "type": "Feature",
      "properties": {
        "id": 20068,
        "shortName": "68",
        "longName": "РўСЂРі РЎР»Р°РІРёСР° (РќРµРјР°СљРёРЅР°)",
        "display": "tram"
      },
      "geometry": {
        "type": "Point",
        "coordinates": [
          20.4644815723,
          44.803200088
        ]
      }
    },
    {
      "type": "Feature",
      "properties": {
        "id": 20069,
        "shortName": "69",
        "longName": "РЎР°РІСЃРєРё С‚СЂРі",
        "display": "bus"
      },
      "geometry": {
        "type": "Point",
        "coordinates": [
          20.4574139332,
          44.8075528643
        ]
      }
    },
    {
      "type": "Feature",
      "properties": {
        "id": 20070,
        "shortName": "70",
        "longName": "РЎР°РІСЃРєРё С‚СЂРі",
        "display": "tram"
      },
      "geometry": {
        "type": "Point",
        "coordinates": [
          20.4577638063,
          44.8071374578
        ]
      }
    },
    {
      "type": "Feature",
      "properties": {
        "id": 20071,
        "shortName": "71",
        "longName": "Р‘СЂР°С›Рµ Р‘Р°СЂСѓС…",
        "display": "bus"
      },
      "geometry": {
        "type": "Point",
        "coordinates": [
          20.45708651,
          44.8249297116
        ]
      }
    },
    {
      "type": "Feature",
      "properties": {
        "id": 20072,
        "shortName": "72",
        "longName": "Р‘СЂР°С›Рµ Р‘Р°СЂСѓС…",
        "display": "bus"
      },
      "geometry": {
        "type": "Point",
        "coordinates": [
          20.4570435853,
          44.8250760862
        ]
      }
    },
    {
      "type": "Feature",
      "properties": {
        "id": 20073,
        "shortName": "73",
        "longName": "РљСЂР°С™Р° РџРµС‚СЂР°",
        "display": "bus"
      },
      "geometry": {
        "type": "Point",
        "coordinates": [
          20.4601462394,
          44.8232747236
        ]
      }
    },
    {
      "type": "Feature",
      "properties": {
        "id": 20074,
        "shortName": "74",
        "longName": "РљСЂР°С™Р° РџРµС‚СЂР°",
        "display": "bus"
      },
      "geometry": {
        "type": "Point",
        "coordinates": [
          20.4602345817,
          44.8233417716
        ]
      }
    },
    {
      "type": "Feature",
      "properties": {
        "id": 20075,
        "shortName": "75",
        "longName": "Р”РёРЅР°СЂСЃРєР°",
        "display": "bus"
      },
      "geometry": {
        "type": "Point",
        "coordinates": [
          20.462744,
          44.787778
        ]
      }
    },
    {
      "type": "Feature",
      "properties": {
        "id": 20076,
        "shortName": "76",
        "longName": "РћРјР»Р°РґРёРЅСЃРєРё СЃС‚Р°РґРёРѕРЅ",
        "display": "bus"
      },
      "geometry": {
        "type": "Point",
        "coordinates": [
          20.4910563773,
          44.8145551515
        ]
      }
    },
    {
      "type": "Feature",
      "properties": {
        "id": 20077,
        "shortName": "77",
        "longName": "Р’Р°С‚СЂРѕРіР°СЃРЅР° РєРѕРјР°РЅРґР°",
        "display": "bus"
      },
      "geometry": {
        "type": "Point",
        "coordinates": [
          20.4879023252,
          44.8120193847
        ]
      }
    },
    {
      "type": "Feature",
      "properties": {
        "id": 20078,
        "shortName": "78",
        "longName": "Р’Р°С‚СЂРѕРіР°СЃРЅР° РєРѕРјР°РЅРґР°",
        "display": "bus"
      },
      "geometry": {
        "type": "Point",
        "coordinates": [
          20.4889190889,
          44.8126835982
        ]
      }
    },
    {
      "type": "Feature",
      "properties": {
        "id": 20079,
        "shortName": "79",
        "longName": "РќРѕРІРѕ РіСЂРѕР±С™Рµ",
        "display": "bus"
      },
      "geometry": {
        "type": "Point",
        "coordinates": [
          20.4848300718,
          44.809836389
        ]
      }
    },
    {
      "type": "Feature",
      "properties": {
        "id": 20080,
        "shortName": "80",
        "longName": "РќРѕРІРѕ РіСЂРѕР±С™Рµ",
        "display": "bus"
      },
      "geometry": {
        "type": "Point",
        "coordinates": [
          20.4865551754,
          44.8107915028
        ]
      }
    },
    {
      "type": "Feature",
      "properties": {
        "id": 20081,
        "shortName": "81",
        "longName": "Р’РњР¦ РљР°СЂР°Р±СѓСЂРјР°",
        "display": "bus"
      },
      "geometry": {
        "type": "Point",
        "coordinates": [
          20.492346602,
          44.8131297802
        ]
      }
    },
    {
      "type": "Feature",
      "properties": {
        "id": 20082,
        "shortName": "82",
        "longName": "РЎС‚СѓРґРµРЅС‚СЃРєРё С‚СЂРі",
        "display": "bus"
      },
      "geometry": {
        "type": "Point",
        "coordinates": [
          20.4581832066,
          44.8183532502
        ]
      }
    },
    {
      "type": "Feature",
      "properties": {
        "id": 20083,
        "shortName": "83",
        "longName": "Р“СЂР°РґСЃРєР° Р±РѕР»РЅРёС†Р°",
        "display": "bus"
      },
      "geometry": {
        "type": "Point",
        "coordinates": [
          20.4989827755,
          44.7999492591
        ]
      }
    },
    {
      "type": "Feature",
      "properties": {
        "id": 20084,
        "shortName": "84",
        "longName": "РўР°С€РјР°СРґР°РЅ (РїР°СЂРє)",
        "display": "tram"
      },
      "geometry": {
        "type": "Point",
        "coordinates": [
          20.4680875773,
          44.8096191406
        ]
      }
    },
    {
      "type": "Feature",
      "properties": {
        "id": 20085,
        "shortName": "85",
        "longName": "РњР°С€РёРЅСЃРєРё С„Р°РєСѓР»С‚РµС‚",
        "display": "bus"
      },
      "geometry": {
        "type": "Point",
        "coordinates": [
          20.4769031312,
          44.8077351532
        ]
      }
    },
    {
      "type": "Feature",
      "properties": {
        "id": 20086,
        "shortName": "86",
        "longName": "Р’СѓРєРѕРІ СЃРїРѕРјРµРЅРёРє (Р‘СѓР». РєСЂР°С™Р° РђР»РµРєСЃР°РЅРґСЂР°)",
        "display": "tram"
      },
      "geometry": {
        "type": "Point",
        "coordinates": [
          20.478701,
          44.804032
        ]
      }
    },
    {
      "type": "Feature",
      "properties": {
        "id": 20087,
        "shortName": "87",
        "longName": "Р“Рћ Р—РІРµР·РґР°СЂР°",
        "display": "bus"
      },
      "geometry": {
        "type": "Point",
        "coordinates": [
          20.4827034092,
          44.8023486094
        ]
      }
    },
    {
      "type": "Feature",
      "properties": {
        "id": 20088,
        "shortName": "88",
        "longName": "Р“Рћ Р—РІРµР·РґР°СЂР°",
        "display": "bus"
      },
      "geometry": {
        "type": "Point",
        "coordinates": [
          20.4822055,
          44.8026658
        ]
      }
    },
    {
      "type": "Feature",
      "properties": {
        "id": 20089,
        "shortName": "89",
        "longName": "РџРёСР°С†Р° Р‚РµСЂР°Рј",
        "display": "bus"
      },
      "geometry": {
        "type": "Point",
        "coordinates": [
          20.4873457,
          44.8004384
        ]
      }
    },
    {
      "type": "Feature",
      "properties": {
        "id": 20090,
        "shortName": "90",
        "longName": "РџРёСР°С†Р° Р‚РµСЂР°Рј",
        "display": "bus"
      },
      "geometry": {
        "type": "Point",
        "coordinates": [
          20.4861159,
          44.8010396
        ]
      }
    },
    {
      "type": "Feature",
      "properties": {
        "id": 20091,
        "shortName": "91",
        "longName": "Р‘Р°С‚СѓС‚РѕРІР°",
        "display": "bus"
      },
      "geometry": {
        "type": "Point",
        "coordinates": [
          20.4997128061,
          44.7953737658
        ]
      }
    },
    {
      "type": "Feature",
      "properties": {
        "id": 20092,
        "shortName": "92",
        "longName": "РџРѕРї РЎС‚РѕСР°РЅРѕРІР°",
        "display": "bus"
      },
      "geometry": {
        "type": "Point",
        "coordinates": [
          20.4916456,
          44.798647
        ]
      }
    },
    {
      "type": "Feature",
      "properties": {
        "id": 20093,
        "shortName": "93",
        "longName": "РџРѕРї РЎС‚РѕСР°РЅРѕРІР°",
        "display": "bus"
      },
      "geometry": {
        "type": "Point",
        "coordinates": [
          20.4897510227,
          44.7995489002
        ]
      }
    },
    {
      "type": "Feature",
      "properties": {
        "id": 20094,
        "shortName": "94",
        "longName": "Р›РёРѕРЅ",
        "display": "bus"
      },
      "geometry": {
        "type": "Point",
        "coordinates": [
          20.4955096,
          44.7970072
        ]
      }
    },
    {
      "type": "Feature",
      "properties": {
        "id": 20095,
        "shortName": "95",
        "longName": "Р›РёРѕРЅ",
        "display": "bus"
      },
      "geometry": {
        "type": "Point",
        "coordinates": [
          20.4945356,
          44.7975106
        ]
      }
    },
    {
      "type": "Feature",
      "properties": {
        "id": 20096,
        "shortName": "96",
        "longName": "Р‘Р°С‚СѓС‚РѕРІР°",
        "display": "bus"
      },
      "geometry": {
        "type": "Point",
        "coordinates": [
          20.4998043429,
          44.7951614507
        ]
      }
    },
    {
      "type": "Feature",
      "properties": {
        "id": 20097,
        "shortName": "97",
        "longName": "Р‘Р°С‚СѓС‚РѕРІР°",
        "display": "bus"
      },
      "geometry": {
        "type": "Point",
        "coordinates": [
          20.4981184,
          44.795982
        ]
      }
    },
    {
      "type": "Feature",
      "properties": {
        "id": 20098,
        "shortName": "98",
        "longName": "РџРёСР°С†Р° Р—РІРµР·РґР°СЂР°",
        "display": "bus"
      },
      "geometry": {
        "type": "Point",
        "coordinates": [
          20.5048868184,
          44.7930795919
        ]
      }
    },
    {
      "type": "Feature",
      "properties": {
        "id": 20099,
        "shortName": "99",
        "longName": "РџРёСР°С†Р° Р—РІРµР·РґР°СЂР°",
        "display": "bus"
      },
      "geometry": {
        "type": "Point",
        "coordinates": [
          20.5048028203,
          44.7932502086
        ]
      }
    },
    {
      "type": "Feature",
      "properties": {
        "id": 20100,
        "shortName": "100",
        "longName": "РґСЂ Р’РµР»РёР·Р°СЂР° РљРѕСЃР°РЅРѕРІРёС›Р°",
        "display": "bus"
      },
      "geometry": {
        "type": "Point",
        "coordinates": [
          20.5089340049,
          44.7924982376
        ]
      }
    },
    {
      "type": "Feature",
      "properties": {
        "id": 20101,
        "shortName": "101",
        "longName": "РґСЂ Р’РµР»РёР·Р°СЂР° РљРѕСЃР°РЅРѕРІРёС›Р°",
        "display": "bus"
      },
      "geometry": {
        "type": "Point",
        "coordinates": [
          20.5109553614,
          44.7919166396
        ]
      }
    },
    {
      "type": "Feature",
      "properties": {
        "id": 20102,
        "shortName": "102",
        "longName": "РњРёС‚Рµ Р СѓР¶РёС›Р°",
        "display": "bus"
      },
      "geometry": {
        "type": "Point",
        "coordinates": [
          20.5136410012,
          44.7904603882
        ]
      }
    },
    {
      "type": "Feature",
      "properties": {
        "id": 20103,
        "shortName": "103",
        "longName": "РњРёС‚Рµ Р СѓР¶РёС›Р°",
        "display": "bus"
      },
      "geometry": {
        "type": "Point",
        "coordinates": [
          20.5127580863,
          44.7910305757
        ]
      }
    },
    {
      "type": "Feature",
      "properties": {
        "id": 20104,
        "shortName": "104",
        "longName": "РљРѕСЃС‚Рµ РўСЂРёС„РєРѕРІРёС›Р°",
        "display": "bus"
      },
      "geometry": {
        "type": "Point",
        "coordinates": [
          20.5163339392,
          44.7886620621
        ]
      }
    },
    {
      "type": "Feature",
      "properties": {
        "id": 20105,
        "shortName": "105",
        "longName": "РљРѕСЃС‚Рµ РўСЂРёС„РєРѕРІРёС›Р°",
        "display": "bus"
      },
      "geometry": {
        "type": "Point",
        "coordinates": [
          20.5159187828,
          44.7892259812
        ]
      }
    },
    {
      "type": "Feature",
      "properties": {
        "id": 20106,
        "shortName": "106",
        "longName": "РЈСЃС‚Р°РЅРёС‡РєР°",
        "display": "tram"
      },
      "geometry": {
        "type": "Point",
        "coordinates": [
          20.5176852,
          44.7849339
        ]
      }
    },
    {
      "type": "Feature",
      "properties": {
        "id": 20107,
        "shortName": "107",
        "longName": "РЈСЃС‚Р°РЅРёС‡РєР°",
        "display": "tram"
      },
      "geometry": {
        "type": "Point",
        "coordinates": [
          20.5185630135,
          44.7843995389
        ]
      }
    },
    {
      "type": "Feature",
      "properties": {
        "id": 20108,
        "shortName": "108",
        "longName": "Р’СѓРєРѕРІ СЃРїРѕРјРµРЅРёРє (Р‘СѓР». РєСЂР°С™Р° РђР»РµРєСЃР°РЅРґСЂР°)",
        "display": "bus"
      },
      "geometry": {
        "type": "Point",
        "coordinates": [
          20.477666011,
          44.8045073834
        ]
      }
    },
    {
      "type": "Feature",
      "properties": {
        "id": 20109,
        "shortName": "109",
        "longName": "РџСЂР°РІРЅРё С„Р°РєСѓР»С‚РµС‚",
        "display": "tram"
      },
      "geometry": {
        "type": "Point",
        "coordinates": [
          20.4709106687,
          44.8075220991
        ]
      }
    },
    {
      "type": "Feature",
      "properties": {
        "id": 20111,
        "shortName": "111",
        "longName": "РўР°С€РјР°СРґР°РЅ",
        "display": "tram"
      },
      "geometry": {
        "type": "Point",
        "coordinates": [
          20.4667588,
          44.8087623
        ]
      }
    },
    {
      "type": "Feature",
      "properties": {
        "id": 20112,
        "shortName": "112",
        "longName": "РўР°С€РјР°СРґР°РЅ",
        "display": "tram"
      },
      "geometry": {
        "type": "Point",
        "coordinates": [
          20.4674696914,
          44.8092728563
        ]
      }
    },
    {
      "type": "Feature",
      "properties": {
        "id": 20113,
        "shortName": "113",
        "longName": "Р Рљ Р‘РµРѕРіСЂР°С’Р°РЅРєР°",
        "display": "tram"
      },
      "geometry": {
        "type": "Point",
        "coordinates": [
          20.4637085,
          44.8062283
        ]
      }
    },
    {
      "type": "Feature",
      "properties": {
        "id": 20114,
        "shortName": "114",
        "longName": "Р Рљ Р‘РµРѕРіСЂР°С’Р°РЅРєР°",
        "display": "bus"
      },
      "geometry": {
        "type": "Point",
        "coordinates": [
          20.464185873,
          44.8064513464
        ]
      }
    },
    {
      "type": "Feature",
      "properties": {
        "id": 20115,
        "shortName": "115",
        "longName": "Р•РєРѕРЅРѕРјСЃРєРё С„Р°РєСѓР»С‚РµС‚",
        "display": "bus"
      },
      "geometry": {
        "type": "Point",
        "coordinates": [
          20.4534855522,
          44.8107863911
        ]
      }
    },
    {
      "type": "Feature",
      "properties": {
        "id": 20116,
        "shortName": "116",
        "longName": "РЎС‚Р°СЂРѕ СЃР°СРјРёС€С‚Рµ",
        "display": "bus"
      },
      "geometry": {
        "type": "Point",
        "coordinates": [
          20.4400928859,
          44.8116843038
        ]
      }
    },
    {
      "type": "Feature",
      "properties": {
        "id": 20117,
        "shortName": "117",
        "longName": "РЎС‚Р°СЂРѕ СЃР°СРјРёС€С‚Рµ",
        "display": "bus"
      },
      "geometry": {
        "type": "Point",
        "coordinates": [
          20.4389872344,
          44.8118760987
        ]
      }
    },
    {
      "type": "Feature",
      "properties": {
        "id": 20118,
        "shortName": "118",
        "longName": "Р‘Р»РѕРєВ 21",
        "display": "bus"
      },
      "geometry": {
        "type": "Point",
        "coordinates": [
          20.4335867773,
          44.8137770182
        ]
      }
    },
    {
      "type": "Feature",
      "properties": {
        "id": 20119,
        "shortName": "119",
        "longName": "Р‘Р»РѕРєВ 21",
        "display": "bus"
      },
      "geometry": {
        "type": "Point",
        "coordinates": [
          20.4339000551,
          44.8136728543
        ]
      }
    },
    {
      "type": "Feature",
      "properties": {
        "id": 20120,
        "shortName": "120",
        "longName": "РЎР°РІР° С†РµРЅС‚Р°СЂ",
        "display": "bus"
      },
      "geometry": {
        "type": "Point",
        "coordinates": [
          20.4294126663,
          44.809174174
        ]
      }
    },
    {
      "type": "Feature",
      "properties": {
        "id": 20121,
        "shortName": "121",
        "longName": "РЎР°РІР° С†РµРЅС‚Р°СЂ",
        "display": "bus"
      },
      "geometry": {
        "type": "Point",
        "coordinates": [
          20.430608554,
          44.8100476458
        ]
      }
    },
    {
      "type": "Feature",
      "properties": {
        "id": 20122,
        "shortName": "122",
        "longName": "Р‘Р»РѕРєВ 23",
        "display": "bus"
      },
      "geometry": {
        "type": "Point",
        "coordinates": [
          20.4272528694,
          44.8067824542
        ]
      }
    },
    {
      "type": "Feature",
      "properties": {
        "id": 20123,
        "shortName": "123",
        "longName": "Р‘Р»РѕРєВ 23",
        "display": "bus"
      },
      "geometry": {
        "type": "Point",
        "coordinates": [
          20.4276332195,
          44.806755379
        ]
      }
    },
    {
      "type": "Feature",
      "properties": {
        "id": 20124,
        "shortName": "124",
        "longName": "РњРёР»СѓС‚РёРЅР° РњРёР»Р°РЅРєРѕРІРёС›Р°",
        "display": "tram"
      },
      "geometry": {
        "type": "Point",
        "coordinates": [
          20.4221217534,
          44.8071285455
        ]
      }
    },
    {
      "type": "Feature",
      "properties": {
        "id": 20125,
        "shortName": "125",
        "longName": "РњРёР»СѓС‚РёРЅР° РњРёР»Р°РЅРєРѕРІРёС›Р°",
        "display": "tram"
      },
      "geometry": {
        "type": "Point",
        "coordinates": [
          20.422453627,
          44.8069658614
        ]
      }
    },
    {
      "type": "Feature",
      "properties": {
        "id": 20126,
        "shortName": "126",
        "longName": "Р–РЎВ РќРѕРІРё Р‘РµРѕРіСЂР°Рґ",
        "display": "tram"
      },
      "geometry": {
        "type": "Point",
        "coordinates": [
          20.418231873,
          44.8067408138
        ]
      }
    },
    {
      "type": "Feature",
      "properties": {
        "id": 20127,
        "shortName": "127",
        "longName": "Р–РЎВ РќРѕРІРё Р‘РµРѕРіСЂР°Рґ",
        "display": "tram"
      },
      "geometry": {
        "type": "Point",
        "coordinates": [
          20.4184967,
          44.8068986
        ]
      }
    },
    {
      "type": "Feature",
      "properties": {
        "id": 20128,
        "shortName": "128",
        "longName": "Р‘Р»РѕРєВ 42",
        "display": "tram"
      },
      "geometry": {
        "type": "Point",
        "coordinates": [
          20.4165332675,
          44.8039203228
        ]
      }
    },
    {
      "type": "Feature",
      "properties": {
        "id": 20129,
        "shortName": "129",
        "longName": "Р‘Р»РѕРєВ 42",
        "display": "tram"
      },
      "geometry": {
        "type": "Point",
        "coordinates": [
          20.417339511,
          44.8044325105
        ]
      }
    },
    {
      "type": "Feature",
      "properties": {
        "id": 20130,
        "shortName": "130",
        "longName": "РђРіРѕСЃС‚РёРЅР° РќРµС‚Р°",
        "display": "tram"
      },
      "geometry": {
        "type": "Point",
        "coordinates": [
          20.4028867638,
          44.8045242111
        ]
      }
    },
    {
      "type": "Feature",
      "properties": {
        "id": 20131,
        "shortName": "131",
        "longName": "РђРіРѕСЃС‚РёРЅР° РќРµС‚Р°",
        "display": "tram"
      },
      "geometry": {
        "type": "Point",
        "coordinates": [
          20.4044433681,
          44.8043805539
        ]
      }
    },
    {
      "type": "Feature",
      "properties": {
        "id": 20132,
        "shortName": "132",
        "longName": "РћРјР»Р°РґРёРЅСЃРєРёС… Р±СЂРёРіР°РґР°",
        "display": "tram"
      },
      "geometry": {
        "type": "Point",
        "coordinates": [
          20.3986922786,
          44.8045525755
        ]
      }
    },
    {
      "type": "Feature",
      "properties": {
        "id": 20133,
        "shortName": "133",
        "longName": "РћРјР»Р°РґРёРЅСЃРєРёС… Р±СЂРёРіР°РґР°",
        "display": "tram"
      },
      "geometry": {
        "type": "Point",
        "coordinates": [
          20.3999561858,
          44.8044764264
        ]
      }
    },
    {
      "type": "Feature",
      "properties": {
        "id": 20134,
        "shortName": "134",
        "longName": "Р‘Р»РѕРєВ 70",
        "display": "tram"
      },
      "geometry": {
        "type": "Point",
        "coordinates": [
          20.3937266872,
          44.8042415246
        ]
      }
    },
    {
      "type": "Feature",
      "properties": {
        "id": 20135,
        "shortName": "135",
        "longName": "Р‘Р»РѕРєВ 70",
        "display": "tram"
      },
      "geometry": {
        "type": "Point",
        "coordinates": [
          20.3938432202,
          44.8041331891
        ]
      }
    },
    {
      "type": "Feature",
      "properties": {
        "id": 20136,
        "shortName": "136",
        "longName": "Р“Р°РЅРґРёСРµРІР°",
        "display": "tram"
      },
      "geometry": {
        "type": "Point",
        "coordinates": [
          20.3874773497,
          44.8033066124
        ]
      }
    },
    {
      "type": "Feature",
      "properties": {
        "id": 20137,
        "shortName": "137",
        "longName": "Р“Р°РЅРґРёСРµРІР°",
        "display": "tram"
      },
      "geometry": {
        "type": "Point",
        "coordinates": [
          20.3888764712,
          44.8034888287
        ]
      }
    },
    {
      "type": "Feature",
      "properties": {
        "id": 20138,
        "shortName": "138",
        "longName": "РќРµС…СЂСѓРѕРІР°",
        "display": "tram"
      },
      "geometry": {
        "type": "Point",
        "coordinates": [
          20.3804271132,
          44.8015494138
        ]
      }
    },
    {
      "type": "Feature",
      "properties": {
        "id": 20139,
        "shortName": "139",
        "longName": "РќРµС…СЂСѓРѕРІР°",
        "display": "tram"
      },
      "geometry": {
        "type": "Point",
        "coordinates": [
          20.3817590558,
          44.801845977
        ]
      }
    },
    {
      "type": "Feature",
      "properties": {
        "id": 20140,
        "shortName": "140",
        "longName": "РћРЁ Р‘СЂР°РЅРєРѕ Р Р°РґРёС‡РµРІРёС›",
        "display": "tram"
      },
      "geometry": {
        "type": "Point",
        "coordinates": [
          20.3754264,
          44.7997959
        ]
      }
    },
    {
      "type": "Feature",
      "properties": {
        "id": 20141,
        "shortName": "141",
        "longName": "РћРЁ Р‘СЂР°РЅРєРѕ Р Р°РґРёС‡РµРІРёС›",
        "display": "tram"
      },
      "geometry": {
        "type": "Point",
        "coordinates": [
          20.3769767,
          44.8003212
        ]
      }
    },
    {
      "type": "Feature",
      "properties": {
        "id": 20142,
        "shortName": "142",
        "longName": "РґСЂ РРІР°РЅР° Р РёР±Р°СЂР°",
        "display": "tram"
      },
      "geometry": {
        "type": "Point",
        "coordinates": [
          20.3716083423,
          44.7970334459
        ]
      }
    },
    {
      "type": "Feature",
      "properties": {
        "id": 20143,
        "shortName": "143",
        "longName": "РґСЂ РРІР°РЅР° Р РёР±Р°СЂР°",
        "display": "tram"
      },
      "geometry": {
        "type": "Point",
        "coordinates": [
          20.3720245644,
          44.7980958557
        ]
      }
    },
    {
      "type": "Feature",
      "properties": {
        "id": 20144,
        "shortName": "144",
        "longName": "Р‘Р»РѕРєВ 45",
        "display": "tram"
      },
      "geometry": {
        "type": "Point",
        "coordinates": [
          20.374039,
          44.793903
        ]
      }
    },
    {
      "type": "Feature",
      "properties": {
        "id": 20145,
        "shortName": "145",
        "longName": "Р‘Р»РѕРєВ 45",
        "display": "tram"
      },
      "geometry": {
        "type": "Point",
        "coordinates": [
          20.374307,
          44.79375
        ]
      }
    },
    {
      "type": "Feature",
      "properties": {
        "id": 20146,
        "shortName": "146",
        "longName": "РўСЂРі РЎР»Р°РІРёСР° (Р‘СѓР»РµРІР°СЂ РѕСЃР»РѕР±РѕС’РµСљР°)",
        "display": "bus"
      },
      "geometry": {
        "type": "Point",
        "coordinates": [
          20.4660652619,
          44.8013608606
        ]
      }
    },
    {
      "type": "Feature",
      "properties": {
        "id": 20147,
        "shortName": "147",
        "longName": "РўСЂРі РЎР»Р°РІРёСР° (Р‘СѓР»РµРІР°СЂ РѕСЃР»РѕР±РѕС’РµСљР°)",
        "display": "bus"
      },
      "geometry": {
        "type": "Point",
        "coordinates": [
          20.466318765,
          44.8013902795
        ]
      }
    },
    {
      "type": "Feature",
      "properties": {
        "id": 20148,
        "shortName": "148",
        "longName": "РљР°СЂР°С’РѕСЂС’РµРІ РїР°СЂРє",
        "display": "bus"
      },
      "geometry": {
        "type": "Point",
        "coordinates": [
          20.4652340221,
          44.7969950216
        ]
      }
    },
    {
      "type": "Feature",
      "properties": {
        "id": 20149,
        "shortName": "149",
        "longName": "РљР°СЂР°С’РѕСЂС’РµРІ РїР°СЂРє",
        "display": "bus"
      },
      "geometry": {
        "type": "Point",
        "coordinates": [
          20.4657405276,
          44.7982126911
        ]
      }
    },
    {
      "type": "Feature",
      "properties": {
        "id": 20150,
        "shortName": "150",
        "longName": "Р¤СЂР°РЅС€Рµ РґвЂ™EРїРµСЂРµР°",
        "display": "tram"
      },
      "geometry": {
        "type": "Point",
        "coordinates": [
          20.4662868,
          44.7926003
        ]
      }
    },
    {
      "type": "Feature",
      "properties": {
        "id": 20151,
        "shortName": "151",
        "longName": "Р¤СЂР°РЅС€Рµ РґвЂ™EРїРµСЂРµР°",
        "display": "tram"
      },
      "geometry": {
        "type": "Point",
        "coordinates": [
          20.466233,
          44.793035
        ]
      }
    },
    {
      "type": "Feature",
      "properties": {
        "id": 20152,
        "shortName": "152",
        "longName": "Р—РІРµС‡Р°РЅСЃРєР°",
        "display": "tram"
      },
      "geometry": {
        "type": "Point",
        "coordinates": [
          20.4657313307,
          44.7884515928
        ]
      }
    },
    {
      "type": "Feature",
      "properties": {
        "id": 20153,
        "shortName": "153",
        "longName": "РўСЂРі РѕСЃР»РѕР±РѕС’РµСљР°",
        "display": "bus"
      },
      "geometry": {
        "type": "Point",
        "coordinates": [
          20.4665164921,
          44.7871060371
        ]
      }
    },
    {
      "type": "Feature",
      "properties": {
        "id": 20154,
        "shortName": "154",
        "longName": "РўСЂРі РѕСЃР»РѕР±РѕС’РµСљР°",
        "display": "bus"
      },
      "geometry": {
        "type": "Point",
        "coordinates": [
          20.4672846938,
          44.7862867335
        ]
      }
    },
    {
      "type": "Feature",
      "properties": {
        "id": 20155,
        "shortName": "155",
        "longName": "Р’РњР¦ РљР°СЂР°Р±СѓСЂРјР°",
        "display": "bus"
      },
      "geometry": {
        "type": "Point",
        "coordinates": [
          20.4923491063,
          44.8134242691
        ]
      }
    },
    {
      "type": "Feature",
      "properties": {
        "id": 20156,
        "shortName": "156",
        "longName": "Р‘РѕР¶Рµ Р€Р°РЅРєРѕРІРёС›Р°",
        "display": "bus"
      },
      "geometry": {
        "type": "Point",
        "coordinates": [
          20.4704090607,
          44.7836178181
        ]
      }
    },
    {
      "type": "Feature",
      "properties": {
        "id": 20157,
        "shortName": "157",
        "longName": "РљСЂР°С™Р° Р’Р»Р°РґРёРјРёСЂР°",
        "display": "bus"
      },
      "geometry": {
        "type": "Point",
        "coordinates": [
          20.4713698049,
          44.7820895371
        ]
      }
    },
    {
      "type": "Feature",
      "properties": {
        "id": 20158,
        "shortName": "158",
        "longName": "РљСЂР°С™Р° Р’Р»Р°РґРёРјРёСЂР°",
        "display": "bus"
      },
      "geometry": {
        "type": "Point",
        "coordinates": [
          20.4718959706,
          44.7816692688
        ]
      }
    },
    {
      "type": "Feature",
      "properties": {
        "id": 20159,
        "shortName": "159",
        "longName": "Р’РёС‚Р°РЅРѕРІР°С‡РєР°",
        "display": "bus"
      },
      "geometry": {
        "type": "Point",
        "coordinates": [
          20.4745407069,
          44.7771058945
        ]
      }
    },
    {
      "type": "Feature",
      "properties": {
        "id": 20160,
        "shortName": "160",
        "longName": "Р’РёС‚Р°РЅРѕРІР°С‡РєР°",
        "display": "bus"
      },
      "geometry": {
        "type": "Point",
        "coordinates": [
          20.4746999938,
          44.7772482903
        ]
      }
    },
    {
      "type": "Feature",
      "properties": {
        "id": 20161,
        "shortName": "161",
        "longName": "РџРµС‚СЂРѕРІР°С‡РєР°",
        "display": "bus"
      },
      "geometry": {
        "type": "Point",
        "coordinates": [
          20.4758005325,
          44.7747772701
        ]
      }
    },
    {
      "type": "Feature",
      "properties": {
        "id": 20162,
        "shortName": "162",
        "longName": "РЎРµСЂРІРёСЃРё",
        "display": "bus"
      },
      "geometry": {
        "type": "Point",
        "coordinates": [
          20.4934613117,
          44.809991304
        ]
      }
    },
    {
      "type": "Feature",
      "properties": {
        "id": 20163,
        "shortName": "163",
        "longName": "РќРёРєС€РёС›РєР°",
        "display": "bus"
      },
      "geometry": {
        "type": "Point",
        "coordinates": [
          20.4778216883,
          44.7715465848
        ]
      }
    },
    {
      "type": "Feature",
      "properties": {
        "id": 20164,
        "shortName": "164",
        "longName": "РќРёРєС€РёС›РєР°",
        "display": "bus"
      },
      "geometry": {
        "type": "Point",
        "coordinates": [
          20.4778168437,
          44.7720204964
        ]
      }
    },
    {
      "type": "Feature",
      "properties": {
        "id": 20165,
        "shortName": "165",
        "longName": "Р’РёСЃРѕРєР° С€РєРѕР»Р° РµР»РµРєС‚СЂРѕС‚РµС…РЅРёРєРµ",
        "display": "bus"
      },
      "geometry": {
        "type": "Point",
        "coordinates": [
          20.4796266356,
          44.7683263509
        ]
      }
    },
    {
      "type": "Feature",
      "properties": {
        "id": 20166,
        "shortName": "166",
        "longName": "Р’РёСЃРѕРєР° С€РєРѕР»Р° РµР»РµРєС‚СЂРѕС‚РµС…РЅРёРєРµ",
        "display": "bus"
      },
      "geometry": {
        "type": "Point",
        "coordinates": [
          20.4791292798,
          44.7691374927
        ]
      }
    },
    {
      "type": "Feature",
      "properties": {
        "id": 20167,
        "shortName": "167",
        "longName": "РЎР°РѕР±СЂР°С›Р°СРЅРё С„Р°РєСѓР»С‚РµС‚",
        "display": "bus"
      },
      "geometry": {
        "type": "Point",
        "coordinates": [
          20.4824600031,
          44.7651446819
        ]
      }
    },
    {
      "type": "Feature",
      "properties": {
        "id": 20168,
        "shortName": "168",
        "longName": "РЎР°РѕР±СЂР°С›Р°СРЅРё С„Р°РєСѓР»С‚РµС‚",
        "display": "bus"
      },
      "geometry": {
        "type": "Point",
        "coordinates": [
          20.4822657141,
          44.7658694937
        ]
      }
    },
    {
      "type": "Feature",
      "properties": {
        "id": 20169,
        "shortName": "169",
        "longName": "Р’РѕР¶РґРѕРІР°С†",
        "display": "bus"
      },
      "geometry": {
        "type": "Point",
        "coordinates": [
          20.4847029,
          44.7608213
        ]
      }
    },
    {
      "type": "Feature",
      "properties": {
        "id": 20170,
        "shortName": "170",
        "longName": "Р‘Р°СљРёС†Р°",
        "display": "tram"
      },
      "geometry": {
        "type": "Point",
        "coordinates": [
          20.4779113564,
          44.7570077576
        ]
      }
    },
    {
      "type": "Feature",
      "properties": {
        "id": 20171,
        "shortName": "171",
        "longName": "Р‘Р°СљРёС†Р°",
        "display": "tram"
      },
      "geometry": {
        "type": "Point",
        "coordinates": [
          20.4772965,
          44.7569169
        ]
      }
    },
    {
      "type": "Feature",
      "properties": {
        "id": 20172,
        "shortName": "172",
        "longName": "Р’СЂР°С‡Р°СЂСЃРєР°",
        "display": "tram"
      },
      "geometry": {
        "type": "Point",
        "coordinates": [
          20.4812971,
          44.7570279
        ]
      }
    },
    {
      "type": "Feature",
      "properties": {
        "id": 20173,
        "shortName": "173",
        "longName": "Р’СЂР°С‡Р°СЂСЃРєР°",
        "display": "tram"
      },
      "geometry": {
        "type": "Point",
        "coordinates": [
          20.4808123,
          44.7572317
        ]
      }
    },
    {
      "type": "Feature",
      "properties": {
        "id": 20174,
        "shortName": "174",
        "longName": "Р’РѕР¶РґРѕРІР°С†",
        "display": "bus"
      },
      "geometry": {
        "type": "Point",
        "coordinates": [
          20.4842932797,
          44.7614350747
        ]
      }
    },
    {
      "type": "Feature",
      "properties": {
        "id": 20175,
        "shortName": "175",
        "longName": "Р’РѕР¶РґРѕРІР°С†",
        "display": "bus"
      },
      "geometry": {
        "type": "Point",
        "coordinates": [
          20.4841196375,
          44.7611810031
        ]
      }
    },
    {
      "type": "Feature",
      "properties": {
        "id": 20176,
        "shortName": "176",
        "longName": "РџСЂР°РІРЅРё С„Р°РєСѓР»С‚РµС‚",
        "display": "bus"
      },
      "geometry": {
        "type": "Point",
        "coordinates": [
          20.4721435098,
          44.80752626
        ]
      }
    },
    {
      "type": "Feature",
      "properties": {
        "id": 20179,
        "shortName": "179",
        "longName": "РљРЅРµР·Р° Р’РёС€РµСЃР»Р°РІР°",
        "display": "bus"
      },
      "geometry": {
        "type": "Point",
        "coordinates": [
          20.4211495,
          44.783077823
        ]
      }
    },
    {
      "type": "Feature",
      "properties": {
        "id": 20180,
        "shortName": "180",
        "longName": "РљРЅРµР·Р° Р’РёС€РµСЃР»Р°РІР°",
        "display": "bus"
      },
      "geometry": {
        "type": "Point",
        "coordinates": [
          20.4226938871,
          44.7834294073
        ]
      }
    },
    {
      "type": "Feature",
      "properties": {
        "id": 20188,
        "shortName": "188",
        "longName": "РўСЂРµР±РµРІРёС›РєР°",
        "display": "bus"
      },
      "geometry": {
        "type": "Point",
        "coordinates": [
          20.4143194571,
          44.7714134011
        ]
      }
    },
    {
      "type": "Feature",
      "properties": {
        "id": 20190,
        "shortName": "190",
        "longName": "РџР°СЂРє \"РўР°С€РјР°СРґР°РЅ\"",
        "display": "bus"
      },
      "geometry": {
        "type": "Point",
        "coordinates": [
          20.4689515319,
          44.8088717671
        ]
      }
    },
    {
      "type": "Feature",
      "properties": {
        "id": 20191,
        "shortName": "191",
        "longName": "РћРјР»Р°РґРёРЅСЃРєРёС… Р±СЂРёРіР°РґР°В 1",
        "display": "bus"
      },
      "geometry": {
        "type": "Point",
        "coordinates": [
          20.4040940718,
          44.8143811634
        ]
      }
    },
    {
      "type": "Feature",
      "properties": {
        "id": 20192,
        "shortName": "192",
        "longName": "Р‘РµРѕРіСЂР°РґСЃРєР° Р°СЂРµРЅР° (Р°РЅС‚РёС„Р°С€РёСЃС‚РёС‡РєРµ Р±РѕСЂР±Рµ)",
        "display": "bus"
      },
      "geometry": {
        "type": "Point",
        "coordinates": [
          20.4225743141,
          44.8116281045
        ]
      }
    },
    {
      "type": "Feature",
      "properties": {
        "id": 20193,
        "shortName": "193",
        "longName": "РўСЂРі Р РµРїСѓР±Р»РёРєРµ",
        "display": "bus"
      },
      "geometry": {
        "type": "Point",
        "coordinates": [
          20.4596895817,
          44.8171932609
        ]
      }
    },
    {
      "type": "Feature",
      "properties": {
        "id": 20194,
        "shortName": "194",
        "longName": "РўСЂРі Р РµРїСѓР±Р»РёРєРµ",
        "display": "bus"
      },
      "geometry": {
        "type": "Point",
        "coordinates": [
          20.4599014356,
          44.8171509402
        ]
      }
    },
    {
      "type": "Feature",
      "properties": {
        "id": 20195,
        "shortName": "195",
        "longName": "РўРµСЂР°Р·РёСРµ",
        "display": "bus"
      },
      "geometry": {
        "type": "Point",
        "coordinates": [
          20.4610526582,
          44.8128027487
        ]
      }
    },
    {
      "type": "Feature",
      "properties": {
        "id": 20196,
        "shortName": "196",
        "longName": "РўРµСЂР°Р·РёСРµ",
        "display": "bus"
      },
      "geometry": {
        "type": "Point",
        "coordinates": [
          20.4611049089,
          44.8132783771
        ]
      }
    },
    {
      "type": "Feature",
      "properties": {
        "id": 20197,
        "shortName": "197",
        "longName": "Р Рљ Р‘РµРѕРіСЂР°С’Р°РЅРєР°",
        "display": "bus"
      },
      "geometry": {
        "type": "Point",
        "coordinates": [
          20.4640588405,
          44.8072541419
        ]
      }
    },
    {
      "type": "Feature",
      "properties": {
        "id": 20198,
        "shortName": "198",
        "longName": "Р Рљ Р‘РµРѕРіСЂР°С’Р°РЅРєР°",
        "display": "bus"
      },
      "geometry": {
        "type": "Point",
        "coordinates": [
          20.4641117325,
          44.8074662204
        ]
      }
    },
    {
      "type": "Feature",
      "properties": {
        "id": 20199,
        "shortName": "199",
        "longName": "РўСЂРі РЎР»Р°РІРёСР°",
        "display": "bus"
      },
      "geometry": {
        "type": "Point",
        "coordinates": [
          20.4660527457,
          44.8028290105
        ]
      }
    },
    {
      "type": "Feature",
      "properties": {
        "id": 20200,
        "shortName": "200",
        "longName": "РўСЂРі РЎР»Р°РІРёСР°",
        "display": "bus"
      },
      "geometry": {
        "type": "Point",
        "coordinates": [
          20.4662937294,
          44.8034589599
        ]
      }
    },
    {
      "type": "Feature",
      "properties": {
        "id": 20201,
        "shortName": "201",
        "longName": "РљР°С‚Р°РЅРёС›РµРІР°",
        "display": "bus"
      },
      "geometry": {
        "type": "Point",
        "coordinates": [
          20.4717502417,
          44.7994743982
        ]
      }
    },
    {
      "type": "Feature",
      "properties": {
        "id": 20202,
        "shortName": "202",
        "longName": "РќРѕРІРѕРїР°Р·Р°СЂСЃРєР°",
        "display": "bus"
      },
      "geometry": {
        "type": "Point",
        "coordinates": [
          20.4742113522,
          44.7978629842
        ]
      }
    },
    {
      "type": "Feature",
      "properties": {
        "id": 20203,
        "shortName": "203",
        "longName": "РњР°С‡РІР°РЅСЃРєР°",
        "display": "bus"
      },
      "geometry": {
        "type": "Point",
        "coordinates": [
          20.4740218141,
          44.7978131103
        ]
      }
    },
    {
      "type": "Feature",
      "properties": {
        "id": 20204,
        "shortName": "204",
        "longName": "РљР°С‚Р°РЅРёС›РµРІР°",
        "display": "bus"
      },
      "geometry": {
        "type": "Point",
        "coordinates": [
          20.4713028449,
          44.7999929943
        ]
      }
    },
    {
      "type": "Feature",
      "properties": {
        "id": 20205,
        "shortName": "205",
        "longName": "Р’РѕСРІРѕРґРµ Р”СЂР°РіРѕРјРёСЂР°",
        "display": "bus"
      },
      "geometry": {
        "type": "Point",
        "coordinates": [
          20.4793648062,
          44.7979564104
        ]
      }
    },
    {
      "type": "Feature",
      "properties": {
        "id": 20206,
        "shortName": "206",
        "longName": "Р’РѕСРІРѕРґРµ Р”СЂР°РіРѕРјРёСЂР°",
        "display": "bus"
      },
      "geometry": {
        "type": "Point",
        "coordinates": [
          20.4802988153,
          44.7980818911
        ]
      }
    },
    {
      "type": "Feature",
      "properties": {
        "id": 20207,
        "shortName": "207",
        "longName": "Р¦СЂРІРµРЅРё РєСЂСЃС‚",
        "display": "bus"
      },
      "geometry": {
        "type": "Point",
        "coordinates": [
          20.4874624307,
          44.7973796292
        ]
      }
    },
    {
      "type": "Feature",
      "properties": {
        "id": 20208,
        "shortName": "208",
        "longName": "Р¦СЂРІРµРЅРё РєСЂСЃС‚",
        "display": "bus"
      },
      "geometry": {
        "type": "Point",
        "coordinates": [
          20.4859755976,
          44.7978678795
        ]
      }
    },
    {
      "type": "Feature",
      "properties": {
        "id": 20209,
        "shortName": "209",
        "longName": "Р‘СЂРµРіР°Р»РЅРёС‡РєР°",
        "display": "bus"
      },
      "geometry": {
        "type": "Point",
        "coordinates": [
          20.4909605013,
          44.7949874816
        ]
      }
    },
    {
      "type": "Feature",
      "properties": {
        "id": 20210,
        "shortName": "210",
        "longName": "Р‘СЂРµРіР°Р»РЅРёС‡РєР°",
        "display": "bus"
      },
      "geometry": {
        "type": "Point",
        "coordinates": [
          20.490873335,
          44.7951412197
        ]
      }
    },
    {
      "type": "Feature",
      "properties": {
        "id": 20211,
        "shortName": "211",
        "longName": "Р’РµР»РёРјРёСЂР° РўРѕРґРѕСЂРѕРІРёС›Р°",
        "display": "bus"
      },
      "geometry": {
        "type": "Point",
        "coordinates": [
          20.4948824558,
          44.7933753224
        ]
      }
    },
    {
      "type": "Feature",
      "properties": {
        "id": 20212,
        "shortName": "212",
        "longName": "Р’РµР»РёРјРёСЂР° РўРѕРґРѕСЂРѕРІРёС›Р°",
        "display": "bus"
      },
      "geometry": {
        "type": "Point",
        "coordinates": [
          20.4945092473,
          44.7936776613
        ]
      }
    },
    {
      "type": "Feature",
      "properties": {
        "id": 20213,
        "shortName": "213",
        "longName": "РЁРєРѕР»Р° Р’РѕСРёСЃР»Р°РІ РР»РёС›",
        "display": "bus"
      },
      "geometry": {
        "type": "Point",
        "coordinates": [
          20.4978871325,
          44.7909246602
        ]
      }
    },
    {
      "type": "Feature",
      "properties": {
        "id": 20214,
        "shortName": "214",
        "longName": "РЁРєРѕР»Р° Р’РѕСРёСЃР»Р°РІ РР»РёС›",
        "display": "bus"
      },
      "geometry": {
        "type": "Point",
        "coordinates": [
          20.4974342908,
          44.7918313557
        ]
      }
    },
    {
      "type": "Feature",
      "properties": {
        "id": 20215,
        "shortName": "215",
        "longName": "Р РёРјСЃРєР°",
        "display": "bus"
      },
      "geometry": {
        "type": "Point",
        "coordinates": [
          20.4997165571,
          44.7874888337
        ]
      }
    },
    {
      "type": "Feature",
      "properties": {
        "id": 20216,
        "shortName": "216",
        "longName": "Р РёРјСЃРєР°",
        "display": "bus"
      },
      "geometry": {
        "type": "Point",
        "coordinates": [
          20.5001679914,
          44.7870337485
        ]
      }
    },
    {
      "type": "Feature",
      "properties": {
        "id": 20217,
        "shortName": "217",
        "longName": "РЁСѓРјРёС†Рµ",
        "display": "bus"
      },
      "geometry": {
        "type": "Point",
        "coordinates": [
          20.5021860785,
          44.7831847386
        ]
      }
    },
    {
      "type": "Feature",
      "properties": {
        "id": 20218,
        "shortName": "218",
        "longName": "РЁСѓРјРёС†Рµ",
        "display": "bus"
      },
      "geometry": {
        "type": "Point",
        "coordinates": [
          20.5013241141,
          44.783864181
        ]
      }
    },
    {
      "type": "Feature",
      "properties": {
        "id": 20219,
        "shortName": "219",
        "longName": "РџРµС‚СЂРёСљСЃРєР°",
        "display": "bus"
      },
      "geometry": {
        "type": "Point",
        "coordinates": [
          20.5071527988,
          44.7825943306
        ]
      }
    },
    {
      "type": "Feature",
      "properties": {
        "id": 20220,
        "shortName": "220",
        "longName": "РџРµС‚СЂРёСљСЃРєР°",
        "display": "bus"
      },
      "geometry": {
        "type": "Point",
        "coordinates": [
          20.5057595098,
          44.7829538451
        ]
      }
    },
    {
      "type": "Feature",
      "properties": {
        "id": 20221,
        "shortName": "221",
        "longName": "РљРѕСљР°СЂРЅРёРє",
        "display": "bus"
      },
      "geometry": {
        "type": "Point",
        "coordinates": [
          20.511152003,
          44.7820910455
        ]
      }
    },
    {
      "type": "Feature",
      "properties": {
        "id": 20222,
        "shortName": "222",
        "longName": "РљРѕСљР°СЂРЅРёРє",
        "display": "bus"
      },
      "geometry": {
        "type": "Point",
        "coordinates": [
          20.5108043652,
          44.7822781353
        ]
      }
    },
    {
      "type": "Feature",
      "properties": {
        "id": 20223,
        "shortName": "223",
        "longName": "Р РёРјСЃРєР°",
        "display": "bus"
      },
      "geometry": {
        "type": "Point",
        "coordinates": [
          20.5009637311,
          44.7866581257
        ]
      }
    },
    {
      "type": "Feature",
      "properties": {
        "id": 20224,
        "shortName": "224",
        "longName": "Р РёРјСЃРєР°",
        "display": "bus"
      },
      "geometry": {
        "type": "Point",
        "coordinates": [
          20.5012513412,
          44.786903132
        ]
      }
    },
    {
      "type": "Feature",
      "properties": {
        "id": 20225,
        "shortName": "225",
        "longName": "РџРµС’Рµ РњРёР»РѕСЃР°РІС™РµРІРёС›Р°",
        "display": "bus"
      },
      "geometry": {
        "type": "Point",
        "coordinates": [
          20.3769713613,
          44.8177884268
        ]
      }
    },
    {
      "type": "Feature",
      "properties": {
        "id": 20226,
        "shortName": "226",
        "longName": "РґСЂ Р’РµР»РёР·Р°СЂР° РљРѕСЃР°РЅРѕРІРёС›Р°",
        "display": "bus"
      },
      "geometry": {
        "type": "Point",
        "coordinates": [
          20.5046576,
          44.788128
        ]
      }
    },
    {
      "type": "Feature",
      "properties": {
        "id": 20227,
        "shortName": "227",
        "longName": "РњР°СЂС‡Р°РЅСЃРєР°",
        "display": "bus"
      },
      "geometry": {
        "type": "Point",
        "coordinates": [
          20.5088259,
          44.7872192
        ]
      }
    },
    {
      "type": "Feature",
      "properties": {
        "id": 20228,
        "shortName": "228",
        "longName": "РЈС‡РёС‚РµС™СЃРєРѕ РЅР°СЃРµС™Рµ",
        "display": "bus"
      },
      "geometry": {
        "type": "Point",
        "coordinates": [
          20.5072177111,
          44.7861036408
        ]
      }
    },
    {
      "type": "Feature",
      "properties": {
        "id": 20229,
        "shortName": "229",
        "longName": "Р‘Р°С‡РІР°РЅСЃРєР°",
        "display": "bus"
      },
      "geometry": {
        "type": "Point",
        "coordinates": [
          20.4943766528,
          44.7910103332
        ]
      }
    },
    {
      "type": "Feature",
      "properties": {
        "id": 20230,
        "shortName": "230",
        "longName": "Р‘Р°С‡РІР°РЅСЃРєР°",
        "display": "bus"
      },
      "geometry": {
        "type": "Point",
        "coordinates": [
          20.4937880208,
          44.7908791254
        ]
      }
    },
    {
      "type": "Feature",
      "properties": {
        "id": 20231,
        "shortName": "231",
        "longName": "Р“СЂС‡РёС›Р° РњРёР»РµРЅРєР°",
        "display": "bus"
      },
      "geometry": {
        "type": "Point",
        "coordinates": [
          20.4908677435,
          44.7914807828
        ]
      }
    },
    {
      "type": "Feature",
      "properties": {
        "id": 20232,
        "shortName": "232",
        "longName": "Р“СЂС‡РёС›Р° РњРёР»РµРЅРєР°",
        "display": "bus"
      },
      "geometry": {
        "type": "Point",
        "coordinates": [
          20.4894043098,
          44.7916280047
        ]
      }
    },
    {
      "type": "Feature",
      "properties": {
        "id": 20233,
        "shortName": "233",
        "longName": "РљСЂСѓС€РµРІР°С‡РєР°",
        "display": "bus"
      },
      "geometry": {
        "type": "Point",
        "coordinates": [
          20.4848682442,
          44.7906920622
        ]
      }
    },
    {
      "type": "Feature",
      "properties": {
        "id": 20234,
        "shortName": "234",
        "longName": "РљСЂСѓС€РµРІР°С‡РєР°",
        "display": "bus"
      },
      "geometry": {
        "type": "Point",
        "coordinates": [
          20.4854876,
          44.7908392
        ]
      }
    },
    {
      "type": "Feature",
      "properties": {
        "id": 20235,
        "shortName": "235",
        "longName": "Р¦СЂРІРµРЅРё РєСЂСЃС‚",
        "display": "bus"
      },
      "geometry": {
        "type": "Point",
        "coordinates": [
          20.4865468,
          44.797945
        ]
      }
    },
    {
      "type": "Feature",
      "properties": {
        "id": 20236,
        "shortName": "236",
        "longName": "13. РњР°С (СѓР»Р°Р·)",
        "display": "bus"
      },
      "geometry": {
        "type": "Point",
        "coordinates": [
          20.34,
          44.88391
        ]
      }
    },
    {
      "type": "Feature",
      "properties": {
        "id": 20237,
        "shortName": "237",
        "longName": "Р‘РµРѕРіСЂР°РґСЃРєР° Р°СЂРµРЅР° (С€РїР°РЅСЃРєРёС… Р±РѕСЂР°С†Р°)",
        "display": "bus"
      },
      "geometry": {
        "type": "Point",
        "coordinates": [
          20.4182931785,
          44.8135957361
        ]
      }
    },
    {
      "type": "Feature",
      "properties": {
        "id": 20238,
        "shortName": "238",
        "longName": "РњР°РєРµРґРѕРЅСЃРєР°",
        "display": "bus"
      },
      "geometry": {
        "type": "Point",
        "coordinates": [
          20.4652979106,
          44.8152255804
        ]
      }
    },
    {
      "type": "Feature",
      "properties": {
        "id": 20239,
        "shortName": "239",
        "longName": "27. РњР°СЂС‚Р°",
        "display": "bus"
      },
      "geometry": {
        "type": "Point",
        "coordinates": [
          20.4725991895,
          44.8135539508
        ]
      }
    },
    {
      "type": "Feature",
      "properties": {
        "id": 20240,
        "shortName": "240",
        "longName": "27. РњР°СЂС‚Р°",
        "display": "bus"
      },
      "geometry": {
        "type": "Point",
        "coordinates": [
          20.4714605639,
          44.8130072287
        ]
      }
    },
    {
      "type": "Feature",
      "properties": {
        "id": 20241,
        "shortName": "241",
        "longName": "Р€Р°С€Рµ РџСЂРѕРґР°РЅРѕРІРёС›Р°",
        "display": "bus"
      },
      "geometry": {
        "type": "Point",
        "coordinates": [
          20.4773978632,
          44.8147643905
        ]
      }
    },
    {
      "type": "Feature",
      "properties": {
        "id": 20242,
        "shortName": "242",
        "longName": "Р€Р°С€Рµ РџСЂРѕРґР°РЅРѕРІРёС›Р°",
        "display": "bus"
      },
      "geometry": {
        "type": "Point",
        "coordinates": [
          20.476569365,
          44.8151598236
        ]
      }
    },
    {
      "type": "Feature",
      "properties": {
        "id": 20243,
        "shortName": "243",
        "longName": "Р—РґСЂР°РІРєР° Р§РµР»Р°СЂР°",
        "display": "bus"
      },
      "geometry": {
        "type": "Point",
        "coordinates": [
          20.4794788,
          44.8108918
        ]
      }
    },
    {
      "type": "Feature",
      "properties": {
        "id": 20244,
        "shortName": "244",
        "longName": "Р—РґСЂР°РІРєР° Р§РµР»Р°СЂР°",
        "display": "bus"
      },
      "geometry": {
        "type": "Point",
        "coordinates": [
          20.4791144607,
          44.8117169476
        ]
      }
    },
    {
      "type": "Feature",
      "properties": {
        "id": 20245,
        "shortName": "245",
        "longName": "РџРѕРґРІРѕР¶СљР°Рє",
        "display": "bus"
      },
      "geometry": {
        "type": "Point",
        "coordinates": [
          20.4834756374,
          44.8063280534
        ]
      }
    },
    {
      "type": "Feature",
      "properties": {
        "id": 20246,
        "shortName": "246",
        "longName": "РџРѕРґРІРѕР¶СљР°Рє",
        "display": "bus"
      },
      "geometry": {
        "type": "Point",
        "coordinates": [
          20.4839357761,
          44.8060599919
        ]
      }
    },
    {
      "type": "Feature",
      "properties": {
        "id": 20247,
        "shortName": "247",
        "longName": "РњР°СЂРєР° РћСЂРµС€РєРѕРІРёС›Р°",
        "display": "bus"
      },
      "geometry": {
        "type": "Point",
        "coordinates": [
          20.4889065387,
          44.8029646521
        ]
      }
    },
    {
      "type": "Feature",
      "properties": {
        "id": 20248,
        "shortName": "248",
        "longName": "РњР°СЂРєР° РћСЂРµС€РєРѕРІРёС›Р°",
        "display": "bus"
      },
      "geometry": {
        "type": "Point",
        "coordinates": [
          20.4869218092,
          44.8041121872
        ]
      }
    },
    {
      "type": "Feature",
      "properties": {
        "id": 20249,
        "shortName": "249",
        "longName": "РЁР°Р±Р°С‡РєР°",
        "display": "bus"
      },
      "geometry": {
        "type": "Point",
        "coordinates": [
          20.4934571914,
          44.8012453666
        ]
      }
    },
    {
      "type": "Feature",
      "properties": {
        "id": 20250,
        "shortName": "250",
        "longName": "Р–РёРІРѕСРёРЅР° Р–СѓСРѕРІРёС›Р°",
        "display": "bus"
      },
      "geometry": {
        "type": "Point",
        "coordinates": [
          20.4928291461,
          44.8015169462
        ]
      }
    },
    {
      "type": "Feature",
      "properties": {
        "id": 20251,
        "shortName": "251",
        "longName": "Р§РµРіР°СЂСЃРєР°",
        "display": "bus"
      },
      "geometry": {
        "type": "Point",
        "coordinates": [
          20.4958223651,
          44.8007599858
        ]
      }
    },
    {
      "type": "Feature",
      "properties": {
        "id": 20252,
        "shortName": "252",
        "longName": "Р“СЂР°РґСЃРєР° Р±РѕР»РЅРёС†Р°",
        "display": "bus"
      },
      "geometry": {
        "type": "Point",
        "coordinates": [
          20.5003885,
          44.7996743
        ]
      }
    },
    {
      "type": "Feature",
      "properties": {
        "id": 20253,
        "shortName": "253",
        "longName": "Р“СЂР°РґСЃРєР° Р±РѕР»РЅРёС†Р°",
        "display": "bus"
      },
      "geometry": {
        "type": "Point",
        "coordinates": [
          20.4993021761,
          44.8000337166
        ]
      }
    },
    {
      "type": "Feature",
      "properties": {
        "id": 20254,
        "shortName": "254",
        "longName": "РњРёР»РѕС€Р° Р€Р°РЅРєРѕРІРёС›Р°",
        "display": "bus"
      },
      "geometry": {
        "type": "Point",
        "coordinates": [
          20.5031975,
          44.7993201
        ]
      }
    },
    {
      "type": "Feature",
      "properties": {
        "id": 20255,
        "shortName": "255",
        "longName": "РњРёР»РѕС€Р° Р€Р°РЅРєРѕРІРёС›Р°",
        "display": "bus"
      },
      "geometry": {
        "type": "Point",
        "coordinates": [
          20.5038686276,
          44.7993083402
        ]
      }
    },
    {
      "type": "Feature",
      "properties": {
        "id": 20256,
        "shortName": "256",
        "longName": "Р—РІРµР·РґР°СЂР°",
        "display": "bus"
      },
      "geometry": {
        "type": "Point",
        "coordinates": [
          20.505986046,
          44.7982912499
        ]
      }
    },
    {
      "type": "Feature",
      "properties": {
        "id": 20257,
        "shortName": "257",
        "longName": "Р—РІРµР·РґР°СЂР°",
        "display": "bus"
      },
      "geometry": {
        "type": "Point",
        "coordinates": [
          20.5065236484,
          44.7981164411
        ]
      }
    },
    {
      "type": "Feature",
      "properties": {
        "id": 20258,
        "shortName": "258",
        "longName": "РЁСѓРјРёС†Рµ",
        "display": "bus"
      },
      "geometry": {
        "type": "Point",
        "coordinates": [
          20.5013754178,
          44.7829844399
        ]
      }
    },
    {
      "type": "Feature",
      "properties": {
        "id": 20259,
        "shortName": "259",
        "longName": "Р’Р»Р°РґРёРјРёСЂР° РўРѕРјР°РЅРѕРІРёС›Р°",
        "display": "bus"
      },
      "geometry": {
        "type": "Point",
        "coordinates": [
          20.5020805092,
          44.7818043455
        ]
      }
    },
    {
      "type": "Feature",
      "properties": {
        "id": 20260,
        "shortName": "260",
        "longName": "РњРµРґР°РєРѕРІРёС›В 2",
        "display": "bus"
      },
      "geometry": {
        "type": "Point",
        "coordinates": [
          20.4997496397,
          44.7749479631
        ]
      }
    },
    {
      "type": "Feature",
      "properties": {
        "id": 20261,
        "shortName": "261",
        "longName": "РњРµРґР°РєРѕРІРёС›В 2",
        "display": "bus"
      },
      "geometry": {
        "type": "Point",
        "coordinates": [
          20.5001893712,
          44.7756193819
        ]
      }
    },
    {
      "type": "Feature",
      "properties": {
        "id": 20262,
        "shortName": "262",
        "longName": "РЎРІРµС‚РѕР·Р°СЂР° Р Р°РґРѕСС‡РёС›Р°",
        "display": "bus"
      },
      "geometry": {
        "type": "Point",
        "coordinates": [
          20.5022641693,
          44.7721651268
        ]
      }
    },
    {
      "type": "Feature",
      "properties": {
        "id": 20263,
        "shortName": "263",
        "longName": "РЎРІРµС‚РѕР·Р°СЂР° Р Р°РґРѕСС‡РёС›Р°",
        "display": "bus"
      },
      "geometry": {
        "type": "Point",
        "coordinates": [
          20.5028066405,
          44.7720457946
        ]
      }
    },
    {
      "type": "Feature",
      "properties": {
        "id": 20264,
        "shortName": "264",
        "longName": "РњРµРґР°РєРѕРІРёС›В 3",
        "display": "bus"
      },
      "geometry": {
        "type": "Point",
        "coordinates": [
          20.5079310271,
          44.7722894732
        ]
      }
    },
    {
      "type": "Feature",
      "properties": {
        "id": 20265,
        "shortName": "265",
        "longName": "РњРµРґР°РєРѕРІРёС›В 3",
        "display": "bus"
      },
      "geometry": {
        "type": "Point",
        "coordinates": [
          20.5080478841,
          44.7722801928
        ]
      }
    },
    {
      "type": "Feature",
      "properties": {
        "id": 20266,
        "shortName": "266",
        "longName": "Р“Р»Р°РІРЅР° РїРѕС€С‚Р°",
        "display": "bus"
      },
      "geometry": {
        "type": "Point",
        "coordinates": [
          20.4671800914,
          44.8111004896
        ]
      }
    },
    {
      "type": "Feature",
      "properties": {
        "id": 20267,
        "shortName": "267",
        "longName": "Р“Р»Р°РІРЅР° РїРѕС€С‚Р°",
        "display": "bus"
      },
      "geometry": {
        "type": "Point",
        "coordinates": [
          20.4684095,
          44.8113682
        ]
      }
    },
    {
      "type": "Feature",
      "properties": {
        "id": 20268,
        "shortName": "268",
        "longName": "РђРґРјРёСЂР°Р»Р° Р“РµРїСЂР°С‚Р°",
        "display": "bus"
      },
      "geometry": {
        "type": "Point",
        "coordinates": [
          20.4613909504,
          44.8067908973
        ]
      }
    },
    {
      "type": "Feature",
      "properties": {
        "id": 20269,
        "shortName": "269",
        "longName": "Р›РѕРЅРґРѕРЅ",
        "display": "bus"
      },
      "geometry": {
        "type": "Point",
        "coordinates": [
          20.4628306142,
          44.8077573002
        ]
      }
    },
    {
      "type": "Feature",
      "properties": {
        "id": 20270,
        "shortName": "270",
        "longName": "Р‘РёСЂС‡Р°РЅРёРЅРѕРІР°",
        "display": "bus"
      },
      "geometry": {
        "type": "Point",
        "coordinates": [
          20.4594697416,
          44.8049538988
        ]
      }
    },
    {
      "type": "Feature",
      "properties": {
        "id": 20271,
        "shortName": "271",
        "longName": "РњРёР»РѕС€Р° РџРѕС†РµСЂС†Р°",
        "display": "bus"
      },
      "geometry": {
        "type": "Point",
        "coordinates": [
          20.4560316147,
          44.8023774202
        ]
      }
    },
    {
      "type": "Feature",
      "properties": {
        "id": 20272,
        "shortName": "272",
        "longName": "Р’РёС€РµРіСЂР°РґСЃРєР°",
        "display": "bus"
      },
      "geometry": {
        "type": "Point",
        "coordinates": [
          20.455491309,
          44.801577802
        ]
      }
    },
    {
      "type": "Feature",
      "properties": {
        "id": 20273,
        "shortName": "273",
        "longName": "Р–РЎВ Р‘РµРѕРіСЂР°Рґ Р¦РµРЅС‚Р°СЂ",
        "display": "bus"
      },
      "geometry": {
        "type": "Point",
        "coordinates": [
          20.45013,
          44.79314
        ]
      }
    },
    {
      "type": "Feature",
      "properties": {
        "id": 20274,
        "shortName": "274",
        "longName": "РћСЂС‚РѕРїРµРґСЃРєРё Р·Р°РІРѕРґ",
        "display": "bus"
      },
      "geometry": {
        "type": "Point",
        "coordinates": [
          20.4487627,
          44.7952244
        ]
      }
    },
    {
      "type": "Feature",
      "properties": {
        "id": 20275,
        "shortName": "275",
        "longName": "РњСѓР·РµС Р€СѓРіРѕСЃР»Р°РІРёСРµ",
        "display": "bus"
      },
      "geometry": {
        "type": "Point",
        "coordinates": [
          20.454344,
          44.7897102
        ]
      }
    },
    {
      "type": "Feature",
      "properties": {
        "id": 20276,
        "shortName": "276",
        "longName": "РњСѓР·РµС Р€СѓРіРѕСЃР»Р°РІРёСРµ",
        "display": "bus"
      },
      "geometry": {
        "type": "Point",
        "coordinates": [
          20.4534849105,
          44.7908663555
        ]
      }
    },
    {
      "type": "Feature",
      "properties": {
        "id": 20277,
        "shortName": "277",
        "longName": "РЎС‚Р°РґРёРѕРЅ РџР°СЂС‚РёР·Р°РЅ",
        "display": "bus"
      },
      "geometry": {
        "type": "Point",
        "coordinates": [
          20.4574375515,
          44.7862858555
        ]
      }
    },
    {
      "type": "Feature",
      "properties": {
        "id": 20278,
        "shortName": "278",
        "longName": "РЎС‚Р°РґРёРѕРЅ РџР°СЂС‚РёР·Р°РЅ",
        "display": "bus"
      },
      "geometry": {
        "type": "Point",
        "coordinates": [
          20.4576583196,
          44.7859810749
        ]
      }
    },
    {
      "type": "Feature",
      "properties": {
        "id": 20279,
        "shortName": "279",
        "longName": "Р‘РѕР»РЅРёС†Р° Р”СЂР°РіРёС€Р° РњРёС€РѕРІРёС›",
        "display": "bus"
      },
      "geometry": {
        "type": "Point",
        "coordinates": [
          20.4581511515,
          44.7776448386
        ]
      }
    },
    {
      "type": "Feature",
      "properties": {
        "id": 20280,
        "shortName": "280",
        "longName": "Р‘РѕР»РЅРёС†Р° Р”СЂР°РіРёС€Р° РњРёС€РѕРІРёС›",
        "display": "bus"
      },
      "geometry": {
        "type": "Point",
        "coordinates": [
          20.458533489,
          44.7775161379
        ]
      }
    },
    {
      "type": "Feature",
      "properties": {
        "id": 20281,
        "shortName": "281",
        "longName": "РџР°СРµ РђРґР°РјРѕРІР°",
        "display": "bus"
      },
      "geometry": {
        "type": "Point",
        "coordinates": [
          20.4626621687,
          44.7727202712
        ]
      }
    },
    {
      "type": "Feature",
      "properties": {
        "id": 20282,
        "shortName": "282",
        "longName": "РџР°СРµ РђРґР°РјРѕРІР°",
        "display": "bus"
      },
      "geometry": {
        "type": "Point",
        "coordinates": [
          20.4619848681,
          44.7737309218
        ]
      }
    },
    {
      "type": "Feature",
      "properties": {
        "id": 20283,
        "shortName": "283",
        "longName": "Р‘Р°СљРёС†Р°",
        "display": "bus"
      },
      "geometry": {
        "type": "Point",
        "coordinates": [
          20.4660058844,
          44.7694147515
        ]
      }
    },
    {
      "type": "Feature",
      "properties": {
        "id": 20284,
        "shortName": "284",
        "longName": "Р‘Р°СљРёС†Р°",
        "display": "bus"
      },
      "geometry": {
        "type": "Point",
        "coordinates": [
          20.4657330951,
          44.7699319485
        ]
      }
    },
    {
      "type": "Feature",
      "properties": {
        "id": 20285,
        "shortName": "285",
        "longName": "Р’РѕСРЅРѕРјРµРґРёС†РёРЅСЃРєР° Р°РєР°РґРµРјРёСР°",
        "display": "bus"
      },
      "geometry": {
        "type": "Point",
        "coordinates": [
          20.4700805197,
          44.765675274
        ]
      }
    },
    {
      "type": "Feature",
      "properties": {
        "id": 20286,
        "shortName": "286",
        "longName": "Р’РѕСРЅРѕРјРµРґРёС†РёРЅСЃРєР° Р°РєР°РґРµРјРёСР°",
        "display": "bus"
      },
      "geometry": {
        "type": "Point",
        "coordinates": [
          20.4694730558,
          44.7665620229
        ]
      }
    },
    {
      "type": "Feature",
      "properties": {
        "id": 20287,
        "shortName": "287",
        "longName": "РџР»РёРІР°Р»РёС€С‚Рµ Р‘Р°СљРёС†Р°",
        "display": "bus"
      },
      "geometry": {
        "type": "Point",
        "coordinates": [
          20.4724671172,
          44.7630798771
        ]
      }
    },
    {
      "type": "Feature",
      "properties": {
        "id": 20288,
        "shortName": "288",
        "longName": "РџР»РёРІР°Р»РёС€С‚Рµ Р‘Р°СљРёС†Р°",
        "display": "bus"
      },
      "geometry": {
        "type": "Point",
        "coordinates": [
          20.471827484,
          44.7639310527
        ]
      }
    },
    {
      "type": "Feature",
      "properties": {
        "id": 20289,
        "shortName": "289",
        "longName": "РџР°СѓРЅРѕРІР°",
        "display": "bus"
      },
      "geometry": {
        "type": "Point",
        "coordinates": [
          20.4763320982,
          44.7599443762
        ]
      }
    },
    {
      "type": "Feature",
      "properties": {
        "id": 20290,
        "shortName": "290",
        "longName": "Р–РЎВ Р‘РµРѕРіСЂР°Рґ Р¦РµРЅС‚Р°СЂ",
        "display": "bus"
      },
      "geometry": {
        "type": "Point",
        "coordinates": [
          20.450068,
          44.793403
        ]
      }
    },
    {
      "type": "Feature",
      "properties": {
        "id": 20291,
        "shortName": "291",
        "longName": "Р‘Р°С€С‚РѕРІР°РЅСЃРєР°",
        "display": "bus"
      },
      "geometry": {
        "type": "Point",
        "coordinates": [
          20.4769530785,
          44.7563793582
        ]
      }
    },
    {
      "type": "Feature",
      "properties": {
        "id": 20292,
        "shortName": "292",
        "longName": "Р‘Р°С€С‚РѕРІР°РЅСЃРєР°",
        "display": "bus"
      },
      "geometry": {
        "type": "Point",
        "coordinates": [
          20.477203881,
          44.7570328869
        ]
      }
    },
    {
      "type": "Feature",
      "properties": {
        "id": 20293,
        "shortName": "293",
        "longName": "РљСЂР°РіСѓСРµРІР°С‡РєРёС… С’Р°РєР°",
        "display": "bus"
      },
      "geometry": {
        "type": "Point",
        "coordinates": [
          20.4775579994,
          44.7540821242
        ]
      }
    },
    {
      "type": "Feature",
      "properties": {
        "id": 20294,
        "shortName": "294",
        "longName": "РљСЂР°РіСѓСРµРІР°С‡РєРёС… С’Р°РєР°",
        "display": "bus"
      },
      "geometry": {
        "type": "Point",
        "coordinates": [
          20.4770603731,
          44.7547693511
        ]
      }
    },
    {
      "type": "Feature",
      "properties": {
        "id": 20295,
        "shortName": "295",
        "longName": "Р‘Р°СљРёС†Р°В 2",
        "display": "bus"
      },
      "geometry": {
        "type": "Point",
        "coordinates": [
          20.4800847546,
          44.7517631683
        ]
      }
    },
    {
      "type": "Feature",
      "properties": {
        "id": 20296,
        "shortName": "296",
        "longName": "Р—РµР»РµРЅРё РІРµРЅР°С†",
        "display": "bus"
      },
      "geometry": {
        "type": "Point",
        "coordinates": [
          20.4561831098,
          44.8140735453
        ]
      }
    },
    {
      "type": "Feature",
      "properties": {
        "id": 20297,
        "shortName": "297",
        "longName": "Р‘СЂР°РЅРєРѕРІ РјРѕСЃС‚",
        "display": "bus"
      },
      "geometry": {
        "type": "Point",
        "coordinates": [
          20.4522423399,
          44.8153411458
        ]
      }
    },
    {
      "type": "Feature",
      "properties": {
        "id": 20298,
        "shortName": "298",
        "longName": "Р‘СЂР°РЅРєРѕРІ РјРѕСЃС‚",
        "display": "bus"
      },
      "geometry": {
        "type": "Point",
        "coordinates": [
          20.4525855957,
          44.8149943183
        ]
      }
    },
    {
      "type": "Feature",
      "properties": {
        "id": 20299,
        "shortName": "299",
        "longName": "РЈС€С›Рµ",
        "display": "bus"
      },
      "geometry": {
        "type": "Point",
        "coordinates": [
          20.4392781209,
          44.8151933819
        ]
      }
    },
    {
      "type": "Feature",
      "properties": {
        "id": 20300,
        "shortName": "300",
        "longName": "РЈС€С›Рµ",
        "display": "bus"
      },
      "geometry": {
        "type": "Point",
        "coordinates": [
          20.4390259153,
          44.8149406129
        ]
      }
    },
    {
      "type": "Feature",
      "properties": {
        "id": 20301,
        "shortName": "301",
        "longName": "РњРёР»РµРЅС‚РёСР° РџРѕРїРѕРІРёС›Р°",
        "display": "bus"
      },
      "geometry": {
        "type": "Point",
        "coordinates": [
          20.4290791804,
          44.8128319536
        ]
      }
    },
    {
      "type": "Feature",
      "properties": {
        "id": 20302,
        "shortName": "302",
        "longName": "РњРёР»РµРЅС‚РёСР° РџРѕРїРѕРІРёС›Р°",
        "display": "bus"
      },
      "geometry": {
        "type": "Point",
        "coordinates": [
          20.4305794,
          44.8116872
        ]
      }
    },
    {
      "type": "Feature",
      "properties": {
        "id": 20303,
        "shortName": "303",
        "longName": "РџР°Р»Р°С‚Р° РЎСЂР±РёСР°",
        "display": "bus"
      },
      "geometry": {
        "type": "Point",
        "coordinates": [
          20.4300769,
          44.821073
        ]
      }
    },
    {
      "type": "Feature",
      "properties": {
        "id": 20304,
        "shortName": "304",
        "longName": "РџР°Р»Р°С‚Р° РЎСЂР±РёСР°",
        "display": "bus"
      },
      "geometry": {
        "type": "Point",
        "coordinates": [
          20.4312131816,
          44.8203151324
        ]
      }
    },
    {
      "type": "Feature",
      "properties": {
        "id": 20305,
        "shortName": "305",
        "longName": "РҐРѕС‚РµР» Р€СѓРіРѕСЃР»Р°РІРёСР°",
        "display": "bus"
      },
      "geometry": {
        "type": "Point",
        "coordinates": [
          20.4195903252,
          44.8291120503
        ]
      }
    },
    {
      "type": "Feature",
      "properties": {
        "id": 20306,
        "shortName": "306",
        "longName": "РҐРѕС‚РµР» Р€СѓРіРѕСЃР»Р°РІРёСР°",
        "display": "bus"
      },
      "geometry": {
        "type": "Point",
        "coordinates": [
          20.4196261,
          44.8271208
        ]
      }
    },
    {
      "type": "Feature",
      "properties": {
        "id": 20307,
        "shortName": "307",
        "longName": "РЏРѕРЅР° РљРµРЅРµРґРёСР°",
        "display": "bus"
      },
      "geometry": {
        "type": "Point",
        "coordinates": [
          20.4182798031,
          44.8353346092
        ]
      }
    },
    {
      "type": "Feature",
      "properties": {
        "id": 20308,
        "shortName": "308",
        "longName": "РЏРѕРЅР° РљРµРЅРµРґРёСР°",
        "display": "bus"
      },
      "geometry": {
        "type": "Point",
        "coordinates": [
          20.4184120031,
          44.83320353
        ]
      }
    },
    {
      "type": "Feature",
      "properties": {
        "id": 20309,
        "shortName": "309",
        "longName": "РЎСЂРµРјС‡РёС†Р°",
        "display": "bus"
      },
      "geometry": {
        "type": "Point",
        "coordinates": [
          20.404354,
          44.650177
        ]
      }
    },
    {
      "type": "Feature",
      "properties": {
        "id": 20310,
        "shortName": "310",
        "longName": "РљР°СЂР°С’РѕСЂС’РµРІ С‚СЂРі",
        "display": "bus"
      },
      "geometry": {
        "type": "Point",
        "coordinates": [
          20.4173082534,
          44.837109332
        ]
      }
    },
    {
      "type": "Feature",
      "properties": {
        "id": 20311,
        "shortName": "311",
        "longName": "РњР°РєРµРґРѕРЅСЃРєР°",
        "display": "bus"
      },
      "geometry": {
        "type": "Point",
        "coordinates": [
          20.4651538445,
          44.8153662662
        ]
      }
    },
    {
      "type": "Feature",
      "properties": {
        "id": 20312,
        "shortName": "312",
        "longName": "РђР»РµРєСЃР°РЅРґСЂР° Р”СѓР±С‡РµРєР°",
        "display": "bus"
      },
      "geometry": {
        "type": "Point",
        "coordinates": [
          20.4108863932,
          44.8389736045
        ]
      }
    },
    {
      "type": "Feature",
      "properties": {
        "id": 20313,
        "shortName": "313",
        "longName": "РљР‘Р¦ Р—РµРјСѓРЅ",
        "display": "bus"
      },
      "geometry": {
        "type": "Point",
        "coordinates": [
          20.4063507,
          44.8412496
        ]
      }
    },
    {
      "type": "Feature",
      "properties": {
        "id": 20314,
        "shortName": "314",
        "longName": "РљР‘Р¦ Р—РµРјСѓРЅ",
        "display": "bus"
      },
      "geometry": {
        "type": "Point",
        "coordinates": [
          20.4070783,
          44.8403405
        ]
      }
    },
    {
      "type": "Feature",
      "properties": {
        "id": 20315,
        "shortName": "315",
        "longName": "РџСЂРёР»Р°Р·",
        "display": "bus"
      },
      "geometry": {
        "type": "Point",
        "coordinates": [
          20.4035791307,
          44.8414562685
        ]
      }
    },
    {
      "type": "Feature",
      "properties": {
        "id": 20316,
        "shortName": "316",
        "longName": "РџСЂРёР»Р°Р·",
        "display": "bus"
      },
      "geometry": {
        "type": "Point",
        "coordinates": [
          20.4045823,
          44.8416465
        ]
      }
    },
    {
      "type": "Feature",
      "properties": {
        "id": 20317,
        "shortName": "317",
        "longName": "Р—Р»Р°С‚РёР±РѕСЂСЃРєР°",
        "display": "bus"
      },
      "geometry": {
        "type": "Point",
        "coordinates": [
          20.3961368896,
          44.8411172029
        ]
      }
    },
    {
      "type": "Feature",
      "properties": {
        "id": 20318,
        "shortName": "318",
        "longName": "Р—Р»Р°С‚РёР±РѕСЂСЃРєР°",
        "display": "bus"
      },
      "geometry": {
        "type": "Point",
        "coordinates": [
          20.3955078472,
          44.8410001382
        ]
      }
    },
    {
      "type": "Feature",
      "properties": {
        "id": 20319,
        "shortName": "319",
        "longName": "Р‘РѕСЃР°РЅСЃРєР°",
        "display": "bus"
      },
      "geometry": {
        "type": "Point",
        "coordinates": [
          20.3896024944,
          44.8415024885
        ]
      }
    },
    {
      "type": "Feature",
      "properties": {
        "id": 20320,
        "shortName": "320",
        "longName": "Р‘РѕСЃР°РЅСЃРєР°",
        "display": "bus"
      },
      "geometry": {
        "type": "Point",
        "coordinates": [
          20.3905386742,
          44.841199945
        ]
      }
    },
    {
      "type": "Feature",
      "properties": {
        "id": 20321,
        "shortName": "321",
        "longName": "Р Р°РґР° РљРѕРЅС‡Р°СЂР°",
        "display": "bus"
      },
      "geometry": {
        "type": "Point",
        "coordinates": [
          20.3835992595,
          44.8422562318
        ]
      }
    },
    {
      "type": "Feature",
      "properties": {
        "id": 20322,
        "shortName": "322",
        "longName": "Р Р°РґР° РљРѕРЅС‡Р°СЂР°",
        "display": "bus"
      },
      "geometry": {
        "type": "Point",
        "coordinates": [
          20.3855579319,
          44.8418807248
        ]
      }
    },
    {
      "type": "Feature",
      "properties": {
        "id": 20323,
        "shortName": "323",
        "longName": "РџСЂРІРѕРјР°ССЃРєР°",
        "display": "bus"
      },
      "geometry": {
        "type": "Point",
        "coordinates": [
          20.3795742989,
          44.842976054
        ]
      }
    },
    {
      "type": "Feature",
      "properties": {
        "id": 20324,
        "shortName": "324",
        "longName": "РџСЂРІРѕРјР°ССЃРєР°",
        "display": "bus"
      },
      "geometry": {
        "type": "Point",
        "coordinates": [
          20.3797865521,
          44.8426516044
        ]
      }
    },
    {
      "type": "Feature",
      "properties": {
        "id": 20325,
        "shortName": "325",
        "longName": "Р’РѕСРЅРё РїСѓС‚",
        "display": "bus"
      },
      "geometry": {
        "type": "Point",
        "coordinates": [
          20.3762830687,
          44.8413786248
        ]
      }
    },
    {
      "type": "Feature",
      "properties": {
        "id": 20326,
        "shortName": "326",
        "longName": "Р’РѕСРЅРё РїСѓС‚",
        "display": "bus"
      },
      "geometry": {
        "type": "Point",
        "coordinates": [
          20.3766571117,
          44.8424599987
        ]
      }
    },
    {
      "type": "Feature",
      "properties": {
        "id": 20327,
        "shortName": "327",
        "longName": "Р‘СЂР°РЅРєРѕ РџР»РµС›Р°С€",
        "display": "bus"
      },
      "geometry": {
        "type": "Point",
        "coordinates": [
          20.3743008503,
          44.8396109268
        ]
      }
    },
    {
      "type": "Feature",
      "properties": {
        "id": 20328,
        "shortName": "328",
        "longName": "Р‘СЂР°РЅРєРѕ РџР»РµС›Р°С€",
        "display": "bus"
      },
      "geometry": {
        "type": "Point",
        "coordinates": [
          20.3759291282,
          44.8396620235
        ]
      }
    },
    {
      "type": "Feature",
      "properties": {
        "id": 20329,
        "shortName": "329",
        "longName": "РћРЁ Р“Р°РІСЂРёР»Рѕ РџСЂРёРЅС†РёРї",
        "display": "bus"
      },
      "geometry": {
        "type": "Point",
        "coordinates": [
          20.3713140411,
          44.8399916993
        ]
      }
    },
    {
      "type": "Feature",
      "properties": {
        "id": 20330,
        "shortName": "330",
        "longName": "РћРЁ Р“Р°РІСЂРёР»Рѕ РџСЂРёРЅС†РёРї",
        "display": "bus"
      },
      "geometry": {
        "type": "Point",
        "coordinates": [
          20.3716983577,
          44.8398938482
        ]
      }
    },
    {
      "type": "Feature",
      "properties": {
        "id": 20331,
        "shortName": "331",
        "longName": "Р‘РµРѕРіСЂР°РґСЃРєР° Р°СЂРµРЅР° (С€РїР°РЅСЃРєРёС… Р±РѕСЂР°С†Р°)",
        "display": "bus"
      },
      "geometry": {
        "type": "Point",
        "coordinates": [
          20.4183725914,
          44.8130001728
        ]
      }
    },
    {
      "type": "Feature",
      "properties": {
        "id": 20332,
        "shortName": "332",
        "longName": "РђРЅС‚РёС„Р°С€РёСЃС‚РёС‡РєРµ Р±РѕСЂР±Рµ",
        "display": "bus"
      },
      "geometry": {
        "type": "Point",
        "coordinates": [
          20.4245383,
          44.8149476
        ]
      }
    },
    {
      "type": "Feature",
      "properties": {
        "id": 20333,
        "shortName": "333",
        "longName": "Р—РµРјСѓРЅ (РќРѕРІРё РіСЂР°Рґ)",
        "display": "bus"
      },
      "geometry": {
        "type": "Point",
        "coordinates": [
          20.3686900079,
          44.8418377545
        ]
      }
    },
    {
      "type": "Feature",
      "properties": {
        "id": 20334,
        "shortName": "334",
        "longName": "РљР°СЂР°Р±СѓСЂРјР°В 2",
        "display": "bus"
      },
      "geometry": {
        "type": "Point",
        "coordinates": [
          20.5219058,
          44.8073301
        ]
      }
    },
    {
      "type": "Feature",
      "properties": {
        "id": 20335,
        "shortName": "335",
        "longName": "РЎР°Р»РІР°РґРѕСЂР° РђС™РµРЅРґРµР°",
        "display": "bus"
      },
      "geometry": {
        "type": "Point",
        "coordinates": [
          20.5220976994,
          44.8101437827
        ]
      }
    },
    {
      "type": "Feature",
      "properties": {
        "id": 20336,
        "shortName": "336",
        "longName": "РЎР°Р»РІР°РґРѕСЂР° РђС™РµРЅРґРµР°",
        "display": "bus"
      },
      "geometry": {
        "type": "Point",
        "coordinates": [
          20.5218092339,
          44.8105379341
        ]
      }
    },
    {
      "type": "Feature",
      "properties": {
        "id": 20337,
        "shortName": "337",
        "longName": "РҐСѓСЃРёСљСЃРєРёС… СЂСѓРґР°СЂР°",
        "display": "bus"
      },
      "geometry": {
        "type": "Point",
        "coordinates": [
          20.5177946645,
          44.8129677812
        ]
      }
    },
    {
      "type": "Feature",
      "properties": {
        "id": 20338,
        "shortName": "338",
        "longName": "РҐСѓСЃРёСљСЃРєРёС… СЂСѓРґР°СЂР°",
        "display": "bus"
      },
      "geometry": {
        "type": "Point",
        "coordinates": [
          20.5180180141,
          44.8127279273
        ]
      }
    },
    {
      "type": "Feature",
      "properties": {
        "id": 20339,
        "shortName": "339",
        "longName": "РЎС‚РµРІР°РЅР° РҐСЂРёСЃС‚РёС›Р°",
        "display": "bus"
      },
      "geometry": {
        "type": "Point",
        "coordinates": [
          20.5140713957,
          44.8130465813
        ]
      }
    },
    {
      "type": "Feature",
      "properties": {
        "id": 20340,
        "shortName": "340",
        "longName": "РЎС‚РµРІР°РЅР° РҐСЂРёСЃС‚РёС›Р°",
        "display": "bus"
      },
      "geometry": {
        "type": "Point",
        "coordinates": [
          20.5135430928,
          44.8129566294
        ]
      }
    },
    {
      "type": "Feature",
      "properties": {
        "id": 20341,
        "shortName": "341",
        "longName": "Р”РёС™СЃРєР°",
        "display": "bus"
      },
      "geometry": {
        "type": "Point",
        "coordinates": [
          20.5103364884,
          44.8131761144
        ]
      }
    },
    {
      "type": "Feature",
      "properties": {
        "id": 20342,
        "shortName": "342",
        "longName": "Р”РёС™СЃРєР°",
        "display": "bus"
      },
      "geometry": {
        "type": "Point",
        "coordinates": [
          20.5109855221,
          44.8130743814
        ]
      }
    },
    {
      "type": "Feature",
      "properties": {
        "id": 20343,
        "shortName": "343",
        "longName": "РџР°С‚СЂРёСЃР° Р›СѓРјСѓРјР±Рµ",
        "display": "bus"
      },
      "geometry": {
        "type": "Point",
        "coordinates": [
          20.506320708,
          44.8147257375
        ]
      }
    },